[
  {
    "stationName": "Ditmars Blvd",
    "route1": "N",
    "route2": "Q",
    "route3": "",
    "route4": "",
    "route5": "",
    "route6": "",
    "route7": "",
    "route8": "",
    "route9": "",
    "route10": "",
    "route11": "",
    "latitude": 40.775149,
    "longitude": -73.912074
  },
  {
    "stationName": "Astoria Blvd-Hoyt Av",
    "route1": "N",
    "route2": "Q",
    "route3": "",
    "route4": "",
    "route5": "",
    "route6": "",
    "route7": "",
    "route8": "",
    "route9": "",
    "route10": "",
    "route11": "",
    "latitude": 40.770313,
    "longitude": -73.917978
  },
  {
    "stationName": "30 Av-Grand Av",
    "route1": "N",
    "route2": "Q",
    "route3": "",
    "route4": "",
    "route5": "",
    "route6": "",
    "route7": "",
    "route8": "",
    "route9": "",
    "route10": "",
    "route11": "",
    "latitude": 40.766787,
    "longitude": -73.921629
  },
  {
    "stationName": "Broadway",
    "route1": "N",
    "route2": "Q",
    "route3": "",
    "route4": "",
    "route5": "",
    "route6": "",
    "route7": "",
    "route8": "",
    "route9": "",
    "route10": "",
    "route11": "",
    "latitude": 40.76188,
    "longitude": -73.925638
  },
  {
    "stationName": "36 Av-Washington Av",
    "route1": "N",
    "route2": "Q",
    "route3": "",
    "route4": "",
    "route5": "",
    "route6": "",
    "route7": "",
    "route8": "",
    "route9": "",
    "route10": "",
    "route11": "",
    "latitude": 40.756478,
    "longitude": -73.929993
  },
  {
    "stationName": "39 Av-Beebe Av",
    "route1": "N",
    "route2": "Q",
    "route3": "",
    "route4": "",
    "route5": "",
    "route6": "",
    "route7": "",
    "route8": "",
    "route9": "",
    "route10": "",
    "route11": "",
    "latitude": 40.752901,
    "longitude": -73.932903
  },
  {
    "stationName": "5th Av",
    "route1": "N",
    "route2": "Q",
    "route3": "R",
    "route4": "",
    "route5": "",
    "route6": "",
    "route7": "",
    "route8": "",
    "route9": "",
    "route10": "",
    "route11": "",
    "latitude": 40.765156,
    "longitude": -73.972501
  },
  {
    "stationName": "57th St",
    "route1": "N",
    "route2": "Q",
    "route3": "R",
    "route4": "",
    "route5": "",
    "route6": "",
    "route7": "",
    "route8": "",
    "route9": "",
    "route10": "",
    "route11": "",
    "latitude": 40.765365,
    "longitude": -73.980341
  },
  {
    "stationName": "49th St",
    "route1": "N",
    "route2": "Q",
    "route3": "R",
    "route4": "",
    "route5": "",
    "route6": "",
    "route7": "",
    "route8": "",
    "route9": "",
    "route10": "",
    "route11": "",
    "latitude": 40.760486,
    "longitude": -73.983974
  },
  {
    "stationName": "28th St",
    "route1": "N",
    "route2": "R",
    "route3": "",
    "route4": "",
    "route5": "",
    "route6": "",
    "route7": "",
    "route8": "",
    "route9": "",
    "route10": "",
    "route11": "",
    "latitude": 40.745089,
    "longitude": -73.988472
  },
  {
    "stationName": "23rd St",
    "route1": "N",
    "route2": "R",
    "route3": "",
    "route4": "",
    "route5": "",
    "route6": "",
    "route7": "",
    "route8": "",
    "route9": "",
    "route10": "",
    "route11": "",
    "latitude": 40.74108,
    "longitude": -73.989083
  },
  {
    "stationName": "Union Square",
    "route1": "L",
    "route2": "N",
    "route3": "Q",
    "route4": "R",
    "route5": 4,
    "route6": 5,
    "route7": 6,
    "route8": "",
    "route9": "",
    "route10": "",
    "route11": "",
    "latitude": 40.735278,
    "longitude": -73.991058
  },
  {
    "stationName": "8th St",
    "route1": "N",
    "route2": "R",
    "route3": "",
    "route4": "",
    "route5": "",
    "route6": "",
    "route7": "",
    "route8": "",
    "route9": "",
    "route10": "",
    "route11": "",
    "latitude": 40.730477,
    "longitude": -73.992286
  },
  {
    "stationName": "Prince St",
    "route1": "N",
    "route2": "R",
    "route3": "",
    "route4": "",
    "route5": "",
    "route6": "",
    "route7": "",
    "route8": "",
    "route9": "",
    "route10": "",
    "route11": "",
    "latitude": 40.724124,
    "longitude": -73.997686
  },
  {
    "stationName": "City Hall",
    "route1": "R",
    "route2": "",
    "route3": "",
    "route4": "",
    "route5": "",
    "route6": "",
    "route7": "",
    "route8": "",
    "route9": "",
    "route10": "",
    "route11": "",
    "latitude": 40.71311,
    "longitude": -74.007045
  },
  {
    "stationName": "Cortlandt St",
    "route1": "R",
    "route2": "",
    "route3": "",
    "route4": "",
    "route5": "",
    "route6": "",
    "route7": "",
    "route8": "",
    "route9": "",
    "route10": "",
    "route11": "",
    "latitude": 40.710871,
    "longitude": -74.010767
  },
  {
    "stationName": "Rector St",
    "route1": "R",
    "route2": "",
    "route3": "",
    "route4": "",
    "route5": "",
    "route6": "",
    "route7": "",
    "route8": "",
    "route9": "",
    "route10": "",
    "route11": "",
    "latitude": 40.707647,
    "longitude": -74.012924
  },
  {
    "stationName": "Whitehall St",
    "route1": "R",
    "route2": 1,
    "route3": "",
    "route4": "",
    "route5": "",
    "route6": "",
    "route7": "",
    "route8": "",
    "route9": "",
    "route10": "",
    "route11": "",
    "latitude": 40.701938,
    "longitude": -74.012588
  },
  {
    "stationName": "Lawrence St",
    "route1": "A",
    "route2": "C",
    "route3": "F",
    "route4": "R",
    "route5": "",
    "route6": "",
    "route7": "",
    "route8": "",
    "route9": "",
    "route10": "",
    "route11": "",
    "latitude": 40.692114,
    "longitude": -73.986107
  },
  {
    "stationName": "DeKalb Av",
    "route1": "B",
    "route2": "Q",
    "route3": "R",
    "route4": "",
    "route5": "",
    "route6": "",
    "route7": "",
    "route8": "",
    "route9": "",
    "route10": "",
    "route11": "",
    "latitude": 40.689804,
    "longitude": -73.981164
  },
  {
    "stationName": "Atlantic Av-Barclays Ctr",
    "route1": "B",
    "route2": "Q",
    "route3": "D",
    "route4": "N",
    "route5": "R",
    "route6": 2,
    "route7": 3,
    "route8": 4,
    "route9": 5,
    "route10": "",
    "route11": "",
    "latitude": 40.683805,
    "longitude": -73.978487
  },
  {
    "stationName": "Pacific St",
    "route1": "B",
    "route2": "Q",
    "route3": "D",
    "route4": "N",
    "route5": "R",
    "route6": 2,
    "route7": 3,
    "route8": 4,
    "route9": 5,
    "route10": "",
    "route11": "",
    "latitude": 40.683905,
    "longitude": -73.978879
  },
  {
    "stationName": "Union St",
    "route1": "R",
    "route2": "",
    "route3": "",
    "route4": "",
    "route5": "",
    "route6": "",
    "route7": "",
    "route8": "",
    "route9": "",
    "route10": "",
    "route11": "",
    "latitude": 40.677001,
    "longitude": -73.983133
  },
  {
    "stationName": "9th St",
    "route1": "F",
    "route2": "G",
    "route3": "R",
    "route4": "",
    "route5": "",
    "route6": "",
    "route7": "",
    "route8": "",
    "route9": "",
    "route10": "",
    "route11": "",
    "latitude": 40.670387,
    "longitude": -73.98848
  },
  {
    "stationName": "Prospect Av",
    "route1": "R",
    "route2": "",
    "route3": "",
    "route4": "",
    "route5": "",
    "route6": "",
    "route7": "",
    "route8": "",
    "route9": "",
    "route10": "",
    "route11": "",
    "latitude": 40.665299,
    "longitude": -73.992729
  },
  {
    "stationName": "25th St",
    "route1": "R",
    "route2": "",
    "route3": "",
    "route4": "",
    "route5": "",
    "route6": "",
    "route7": "",
    "route8": "",
    "route9": "",
    "route10": "",
    "route11": "",
    "latitude": 40.660323,
    "longitude": -73.997952
  },
  {
    "stationName": "36th St",
    "route1": "N",
    "route2": "R",
    "route3": "",
    "route4": "",
    "route5": "",
    "route6": "",
    "route7": "",
    "route8": "",
    "route9": "",
    "route10": "",
    "route11": "",
    "latitude": 40.65449,
    "longitude": -74.004499
  },
  {
    "stationName": "45th St",
    "route1": "R",
    "route2": "",
    "route3": "",
    "route4": "",
    "route5": "",
    "route6": "",
    "route7": "",
    "route8": "",
    "route9": "",
    "route10": "",
    "route11": "",
    "latitude": 40.649389,
    "longitude": -74.009333
  },
  {
    "stationName": "53rd St",
    "route1": "R",
    "route2": "",
    "route3": "",
    "route4": "",
    "route5": "",
    "route6": "",
    "route7": "",
    "route8": "",
    "route9": "",
    "route10": "",
    "route11": "",
    "latitude": 40.644653,
    "longitude": -74.01469
  },
  {
    "stationName": "59th St",
    "route1": "N",
    "route2": "R",
    "route3": "",
    "route4": "",
    "route5": "",
    "route6": "",
    "route7": "",
    "route8": "",
    "route9": "",
    "route10": "",
    "route11": "",
    "latitude": 40.641606,
    "longitude": -74.017897
  },
  {
    "stationName": "Bay Ridge Av",
    "route1": "R",
    "route2": "",
    "route3": "",
    "route4": "",
    "route5": "",
    "route6": "",
    "route7": "",
    "route8": "",
    "route9": "",
    "route10": "",
    "route11": "",
    "latitude": 40.634827,
    "longitude": -74.02358
  },
  {
    "stationName": "77th St",
    "route1": "R",
    "route2": "",
    "route3": "",
    "route4": "",
    "route5": "",
    "route6": "",
    "route7": "",
    "route8": "",
    "route9": "",
    "route10": "",
    "route11": "",
    "latitude": 40.62955,
    "longitude": -74.025731
  },
  {
    "stationName": "86th St",
    "route1": "R",
    "route2": "",
    "route3": "",
    "route4": "",
    "route5": "",
    "route6": "",
    "route7": "",
    "route8": "",
    "route9": "",
    "route10": "",
    "route11": "",
    "latitude": 40.622656,
    "longitude": -74.028547
  },
  {
    "stationName": "95th St",
    "route1": "R",
    "route2": "",
    "route3": "",
    "route4": "",
    "route5": "",
    "route6": "",
    "route7": "",
    "route8": "",
    "route9": "",
    "route10": "",
    "route11": "",
    "latitude": 40.616021,
    "longitude": -74.031383
  },
  {
    "stationName": "7th Av",
    "route1": "B",
    "route2": "Q",
    "route3": "",
    "route4": "",
    "route5": "",
    "route6": "",
    "route7": "",
    "route8": "",
    "route9": "",
    "route10": "",
    "route11": "",
    "latitude": 40.677365,
    "longitude": -73.972788
  },
  {
    "stationName": "Prospect Park",
    "route1": "B",
    "route2": "Q",
    "route3": "FS",
    "route4": "",
    "route5": "",
    "route6": "",
    "route7": "",
    "route8": "",
    "route9": "",
    "route10": "",
    "route11": "",
    "latitude": 40.660792,
    "longitude": -73.962109
  },
  {
    "stationName": "Parkside Av",
    "route1": "B",
    "route2": "Q",
    "route3": "",
    "route4": "",
    "route5": "",
    "route6": "",
    "route7": "",
    "route8": "",
    "route9": "",
    "route10": "",
    "route11": "",
    "latitude": 40.655221,
    "longitude": -73.961516
  },
  {
    "stationName": "Church Av",
    "route1": "B",
    "route2": "Q",
    "route3": "",
    "route4": "",
    "route5": "",
    "route6": "",
    "route7": "",
    "route8": "",
    "route9": "",
    "route10": "",
    "route11": "",
    "latitude": 40.649427,
    "longitude": -73.963356
  },
  {
    "stationName": "Beverly Rd",
    "route1": "B",
    "route2": "Q",
    "route3": "",
    "route4": "",
    "route5": "",
    "route6": "",
    "route7": "",
    "route8": "",
    "route9": "",
    "route10": "",
    "route11": "",
    "latitude": 40.644272,
    "longitude": -73.964528
  },
  {
    "stationName": "Cortelyou Rd",
    "route1": "B",
    "route2": "Q",
    "route3": "",
    "route4": "",
    "route5": "",
    "route6": "",
    "route7": "",
    "route8": "",
    "route9": "",
    "route10": "",
    "route11": "",
    "latitude": 40.641314,
    "longitude": -73.963996
  },
  {
    "stationName": "Newkirk Av",
    "route1": "B",
    "route2": "Q",
    "route3": "",
    "route4": "",
    "route5": "",
    "route6": "",
    "route7": "",
    "route8": "",
    "route9": "",
    "route10": "",
    "route11": "",
    "latitude": 40.635034,
    "longitude": -73.962736
  },
  {
    "stationName": "Av H",
    "route1": "B",
    "route2": "Q",
    "route3": "",
    "route4": "",
    "route5": "",
    "route6": "",
    "route7": "",
    "route8": "",
    "route9": "",
    "route10": "",
    "route11": "",
    "latitude": 40.62993,
    "longitude": -73.961477
  },
  {
    "stationName": "Av J",
    "route1": "B",
    "route2": "Q",
    "route3": "",
    "route4": "",
    "route5": "",
    "route6": "",
    "route7": "",
    "route8": "",
    "route9": "",
    "route10": "",
    "route11": "",
    "latitude": 40.62513,
    "longitude": -73.960792
  },
  {
    "stationName": "Av M",
    "route1": "B",
    "route2": "Q",
    "route3": "",
    "route4": "",
    "route5": "",
    "route6": "",
    "route7": "",
    "route8": "",
    "route9": "",
    "route10": "",
    "route11": "",
    "latitude": 40.617928,
    "longitude": -73.959454
  },
  {
    "stationName": "Kings Highway",
    "route1": "B",
    "route2": "Q",
    "route3": "",
    "route4": "",
    "route5": "",
    "route6": "",
    "route7": "",
    "route8": "",
    "route9": "",
    "route10": "",
    "route11": "",
    "latitude": 40.608835,
    "longitude": -73.957769
  },
  {
    "stationName": "Av U",
    "route1": "B",
    "route2": "Q",
    "route3": "",
    "route4": "",
    "route5": "",
    "route6": "",
    "route7": "",
    "route8": "",
    "route9": "",
    "route10": "",
    "route11": "",
    "latitude": 40.598991,
    "longitude": -73.955828
  },
  {
    "stationName": "Neck Rd",
    "route1": "B",
    "route2": "Q",
    "route3": "",
    "route4": "",
    "route5": "",
    "route6": "",
    "route7": "",
    "route8": "",
    "route9": "",
    "route10": "",
    "route11": "",
    "latitude": 40.59502,
    "longitude": -73.95512
  },
  {
    "stationName": "Sheepshead Bay",
    "route1": "B",
    "route2": "Q",
    "route3": "",
    "route4": "",
    "route5": "",
    "route6": "",
    "route7": "",
    "route8": "",
    "route9": "",
    "route10": "",
    "route11": "",
    "latitude": 40.587302,
    "longitude": -73.954224
  },
  {
    "stationName": "Brighton Beach",
    "route1": "B",
    "route2": "Q",
    "route3": "",
    "route4": "",
    "route5": "",
    "route6": "",
    "route7": "",
    "route8": "",
    "route9": "",
    "route10": "",
    "route11": "",
    "latitude": 40.577986,
    "longitude": -73.960258
  },
  {
    "stationName": "Ocean Parkway",
    "route1": "Q",
    "route2": "",
    "route3": "",
    "route4": "",
    "route5": "",
    "route6": "",
    "route7": "",
    "route8": "",
    "route9": "",
    "route10": "",
    "route11": "",
    "latitude": 40.576423,
    "longitude": -73.967894
  },
  {
    "stationName": "West 8th St",
    "route1": "F",
    "route2": "Q",
    "route3": "",
    "route4": "",
    "route5": "",
    "route6": "",
    "route7": "",
    "route8": "",
    "route9": "",
    "route10": "",
    "route11": "",
    "latitude": 40.575499,
    "longitude": -73.976873
  },
  {
    "stationName": "Stillwell Av",
    "route1": "D",
    "route2": "F",
    "route3": "N",
    "route4": "Q",
    "route5": "",
    "route6": "",
    "route7": "",
    "route8": "",
    "route9": "",
    "route10": "",
    "route11": "",
    "latitude": 40.5769,
    "longitude": -73.980846
  },
  {
    "stationName": "9th Av",
    "route1": "D",
    "route2": "",
    "route3": "",
    "route4": "",
    "route5": "",
    "route6": "",
    "route7": "",
    "route8": "",
    "route9": "",
    "route10": "",
    "route11": "",
    "latitude": 40.646337,
    "longitude": -73.994489
  },
  {
    "stationName": "Fort Hamilton Parkway",
    "route1": "D",
    "route2": "",
    "route3": "",
    "route4": "",
    "route5": "",
    "route6": "",
    "route7": "",
    "route8": "",
    "route9": "",
    "route10": "",
    "route11": "",
    "latitude": 40.640185,
    "longitude": -73.994423
  },
  {
    "stationName": "50th St",
    "route1": "D",
    "route2": "",
    "route3": "",
    "route4": "",
    "route5": "",
    "route6": "",
    "route7": "",
    "route8": "",
    "route9": "",
    "route10": "",
    "route11": "",
    "latitude": 40.636133,
    "longitude": -73.994915
  },
  {
    "stationName": "55th St",
    "route1": "D",
    "route2": "",
    "route3": "",
    "route4": "",
    "route5": "",
    "route6": "",
    "route7": "",
    "route8": "",
    "route9": "",
    "route10": "",
    "route11": "",
    "latitude": 40.631389,
    "longitude": -73.995262
  },
  {
    "stationName": "71st St",
    "route1": "D",
    "route2": "",
    "route3": "",
    "route4": "",
    "route5": "",
    "route6": "",
    "route7": "",
    "route8": "",
    "route9": "",
    "route10": "",
    "route11": "",
    "latitude": 40.618834,
    "longitude": -73.999195
  },
  {
    "stationName": "79th St",
    "route1": "D",
    "route2": "",
    "route3": "",
    "route4": "",
    "route5": "",
    "route6": "",
    "route7": "",
    "route8": "",
    "route9": "",
    "route10": "",
    "route11": "",
    "latitude": 40.612855,
    "longitude": -74.000892
  },
  {
    "stationName": "18th Av",
    "route1": "D",
    "route2": "",
    "route3": "",
    "route4": "",
    "route5": "",
    "route6": "",
    "route7": "",
    "route8": "",
    "route9": "",
    "route10": "",
    "route11": "",
    "latitude": 40.607602,
    "longitude": -74.001491
  },
  {
    "stationName": "20th Av",
    "route1": "D",
    "route2": "",
    "route3": "",
    "route4": "",
    "route5": "",
    "route6": "",
    "route7": "",
    "route8": "",
    "route9": "",
    "route10": "",
    "route11": "",
    "latitude": 40.604439,
    "longitude": -73.998164
  },
  {
    "stationName": "Bay Parkway",
    "route1": "D",
    "route2": "",
    "route3": "",
    "route4": "",
    "route5": "",
    "route6": "",
    "route7": "",
    "route8": "",
    "route9": "",
    "route10": "",
    "route11": "",
    "latitude": 40.601726,
    "longitude": -73.993696
  },
  {
    "stationName": "25th Av",
    "route1": "D",
    "route2": "",
    "route3": "",
    "route4": "",
    "route5": "",
    "route6": "",
    "route7": "",
    "route8": "",
    "route9": "",
    "route10": "",
    "route11": "",
    "latitude": 40.597889,
    "longitude": -73.986958
  },
  {
    "stationName": "Bay 50th St",
    "route1": "D",
    "route2": "",
    "route3": "",
    "route4": "",
    "route5": "",
    "route6": "",
    "route7": "",
    "route8": "",
    "route9": "",
    "route10": "",
    "route11": "",
    "latitude": 40.588022,
    "longitude": -73.983735
  },
  {
    "stationName": "8th Av",
    "route1": "N",
    "route2": "",
    "route3": "",
    "route4": "",
    "route5": "",
    "route6": "",
    "route7": "",
    "route8": "",
    "route9": "",
    "route10": "",
    "route11": "",
    "latitude": 40.634552,
    "longitude": -74.010726
  },
  {
    "stationName": "Fort Hamilton Parkway",
    "route1": "N",
    "route2": "",
    "route3": "",
    "route4": "",
    "route5": "",
    "route6": "",
    "route7": "",
    "route8": "",
    "route9": "",
    "route10": "",
    "route11": "",
    "latitude": 40.632179,
    "longitude": -74.006658
  },
  {
    "stationName": "New Utrecht Av",
    "route1": "D",
    "route2": "N",
    "route3": "",
    "route4": "",
    "route5": "",
    "route6": "",
    "route7": "",
    "route8": "",
    "route9": "",
    "route10": "",
    "route11": "",
    "latitude": 40.625606,
    "longitude": -73.99683
  },
  {
    "stationName": "18th Av",
    "route1": "N",
    "route2": "",
    "route3": "",
    "route4": "",
    "route5": "",
    "route6": "",
    "route7": "",
    "route8": "",
    "route9": "",
    "route10": "",
    "route11": "",
    "latitude": 40.620062,
    "longitude": -73.98941
  },
  {
    "stationName": "20th Av",
    "route1": "N",
    "route2": "",
    "route3": "",
    "route4": "",
    "route5": "",
    "route6": "",
    "route7": "",
    "route8": "",
    "route9": "",
    "route10": "",
    "route11": "",
    "latitude": 40.617341,
    "longitude": -73.98484
  },
  {
    "stationName": "Bay Parkway-22nd Av",
    "route1": "N",
    "route2": "",
    "route3": "",
    "route4": "",
    "route5": "",
    "route6": "",
    "route7": "",
    "route8": "",
    "route9": "",
    "route10": "",
    "route11": "",
    "latitude": 40.612989,
    "longitude": -73.982084
  },
  {
    "stationName": "Kings Highway",
    "route1": "N",
    "route2": "",
    "route3": "",
    "route4": "",
    "route5": "",
    "route6": "",
    "route7": "",
    "route8": "",
    "route9": "",
    "route10": "",
    "route11": "",
    "latitude": 40.605107,
    "longitude": -73.980578
  },
  {
    "stationName": "Av U",
    "route1": "N",
    "route2": "",
    "route3": "",
    "route4": "",
    "route5": "",
    "route6": "",
    "route7": "",
    "route8": "",
    "route9": "",
    "route10": "",
    "route11": "",
    "latitude": 40.596459,
    "longitude": -73.978943
  },
  {
    "stationName": "86th St",
    "route1": "N",
    "route2": "",
    "route3": "",
    "route4": "",
    "route5": "",
    "route6": "",
    "route7": "",
    "route8": "",
    "route9": "",
    "route10": "",
    "route11": "",
    "latitude": 40.592724,
    "longitude": -73.978227
  },
  {
    "stationName": "121st St",
    "route1": "J",
    "route2": "Z",
    "route3": "",
    "route4": "",
    "route5": "",
    "route6": "",
    "route7": "",
    "route8": "",
    "route9": "",
    "route10": "",
    "route11": "",
    "latitude": 40.700254,
    "longitude": -73.829332
  },
  {
    "stationName": "111th St",
    "route1": "J",
    "route2": "",
    "route3": "",
    "route4": "",
    "route5": "",
    "route6": "",
    "route7": "",
    "route8": "",
    "route9": "",
    "route10": "",
    "route11": "",
    "latitude": 40.696771,
    "longitude": -73.837042
  },
  {
    "stationName": "104th St-102nd St",
    "route1": "J",
    "route2": "Z",
    "route3": "",
    "route4": "",
    "route5": "",
    "route6": "",
    "route7": "",
    "route8": "",
    "route9": "",
    "route10": "",
    "route11": "",
    "latitude": 40.695033,
    "longitude": -73.843298
  },
  {
    "stationName": "Woodhaven Blvd",
    "route1": "J",
    "route2": "Z",
    "route3": "",
    "route4": "",
    "route5": "",
    "route6": "",
    "route7": "",
    "route8": "",
    "route9": "",
    "route10": "",
    "route11": "",
    "latitude": 40.693451,
    "longitude": -73.852556
  },
  {
    "stationName": "Forest Parkway-85th St",
    "route1": "J",
    "route2": "",
    "route3": "",
    "route4": "",
    "route5": "",
    "route6": "",
    "route7": "",
    "route8": "",
    "route9": "",
    "route10": "",
    "route11": "",
    "latitude": 40.692381,
    "longitude": -73.858975
  },
  {
    "stationName": "Elderts Lane-75th St",
    "route1": "J",
    "route2": "Z",
    "route3": "",
    "route4": "",
    "route5": "",
    "route6": "",
    "route7": "",
    "route8": "",
    "route9": "",
    "route10": "",
    "route11": "",
    "latitude": 40.691285,
    "longitude": -73.866425
  },
  {
    "stationName": "Cypress Hills",
    "route1": "J",
    "route2": "",
    "route3": "",
    "route4": "",
    "route5": "",
    "route6": "",
    "route7": "",
    "route8": "",
    "route9": "",
    "route10": "",
    "route11": "",
    "latitude": 40.690142,
    "longitude": -73.87163
  },
  {
    "stationName": "Crescent St",
    "route1": "J",
    "route2": "Z",
    "route3": "",
    "route4": "",
    "route5": "",
    "route6": "",
    "route7": "",
    "route8": "",
    "route9": "",
    "route10": "",
    "route11": "",
    "latitude": 40.683478,
    "longitude": -73.872548
  },
  {
    "stationName": "Norwood Av",
    "route1": "J",
    "route2": "Z",
    "route3": "",
    "route4": "",
    "route5": "",
    "route6": "",
    "route7": "",
    "route8": "",
    "route9": "",
    "route10": "",
    "route11": "",
    "latitude": 40.681757,
    "longitude": -73.879007
  },
  {
    "stationName": "Cleveland St",
    "route1": "J",
    "route2": "",
    "route3": "",
    "route4": "",
    "route5": "",
    "route6": "",
    "route7": "",
    "route8": "",
    "route9": "",
    "route10": "",
    "route11": "",
    "latitude": 40.679656,
    "longitude": -73.885731
  },
  {
    "stationName": "Van Siclen Av",
    "route1": "J",
    "route2": "Z",
    "route3": "",
    "route4": "",
    "route5": "",
    "route6": "",
    "route7": "",
    "route8": "",
    "route9": "",
    "route10": "",
    "route11": "",
    "latitude": 40.677847,
    "longitude": -73.891711
  },
  {
    "stationName": "Alabama Av",
    "route1": "J",
    "route2": "",
    "route3": "",
    "route4": "",
    "route5": "",
    "route6": "",
    "route7": "",
    "route8": "",
    "route9": "",
    "route10": "",
    "route11": "",
    "latitude": 40.676755,
    "longitude": -73.899834
  },
  {
    "stationName": "Chauncey St",
    "route1": "J",
    "route2": "Z",
    "route3": "",
    "route4": "",
    "route5": "",
    "route6": "",
    "route7": "",
    "route8": "",
    "route9": "",
    "route10": "",
    "route11": "",
    "latitude": 40.683313,
    "longitude": -73.911334
  },
  {
    "stationName": "Halsey St",
    "route1": "J",
    "route2": "",
    "route3": "",
    "route4": "",
    "route5": "",
    "route6": "",
    "route7": "",
    "route8": "",
    "route9": "",
    "route10": "",
    "route11": "",
    "latitude": 40.685847,
    "longitude": -73.915807
  },
  {
    "stationName": "Gates Av",
    "route1": "J",
    "route2": "Z",
    "route3": "",
    "route4": "",
    "route5": "",
    "route6": "",
    "route7": "",
    "route8": "",
    "route9": "",
    "route10": "",
    "route11": "",
    "latitude": 40.69003,
    "longitude": -73.923161
  },
  {
    "stationName": "Kosciusko St",
    "route1": "J",
    "route2": "",
    "route3": "",
    "route4": "",
    "route5": "",
    "route6": "",
    "route7": "",
    "route8": "",
    "route9": "",
    "route10": "",
    "route11": "",
    "latitude": 40.69293,
    "longitude": -73.928257
  },
  {
    "stationName": "Myrtle Av",
    "route1": "J",
    "route2": "M",
    "route3": "Z",
    "route4": "",
    "route5": "",
    "route6": "",
    "route7": "",
    "route8": "",
    "route9": "",
    "route10": "",
    "route11": "",
    "latitude": 40.696893,
    "longitude": -73.935461
  },
  {
    "stationName": "Flushing Av",
    "route1": "J",
    "route2": "M",
    "route3": "",
    "route4": "",
    "route5": "",
    "route6": "",
    "route7": "",
    "route8": "",
    "route9": "",
    "route10": "",
    "route11": "",
    "latitude": 40.700629,
    "longitude": -73.941995
  },
  {
    "stationName": "Lorimer St",
    "route1": "J",
    "route2": "M",
    "route3": "",
    "route4": "",
    "route5": "",
    "route6": "",
    "route7": "",
    "route8": "",
    "route9": "",
    "route10": "",
    "route11": "",
    "latitude": 40.704279,
    "longitude": -73.948324
  },
  {
    "stationName": "Hewes St",
    "route1": "J",
    "route2": "M",
    "route3": "",
    "route4": "",
    "route5": "",
    "route6": "",
    "route7": "",
    "route8": "",
    "route9": "",
    "route10": "",
    "route11": "",
    "latitude": 40.707117,
    "longitude": -73.95437
  },
  {
    "stationName": "Marcy Av",
    "route1": "J",
    "route2": "M",
    "route3": "Z",
    "route4": "",
    "route5": "",
    "route6": "",
    "route7": "",
    "route8": "",
    "route9": "",
    "route10": "",
    "route11": "",
    "latitude": 40.708565,
    "longitude": -73.957893
  },
  {
    "stationName": "Essex St",
    "route1": "F",
    "route2": "J",
    "route3": "M",
    "route4": "Z",
    "route5": "",
    "route6": "",
    "route7": "",
    "route8": "",
    "route9": "",
    "route10": "",
    "route11": "",
    "latitude": 40.71841,
    "longitude": -73.987181
  },
  {
    "stationName": "Bowery",
    "route1": "J",
    "route2": "Z",
    "route3": "",
    "route4": "",
    "route5": "",
    "route6": "",
    "route7": "",
    "route8": "",
    "route9": "",
    "route10": "",
    "route11": "",
    "latitude": 40.719977,
    "longitude": -73.993576
  },
  {
    "stationName": "Metropolitan Av",
    "route1": "M",
    "route2": "",
    "route3": "",
    "route4": "",
    "route5": "",
    "route6": "",
    "route7": "",
    "route8": "",
    "route9": "",
    "route10": "",
    "route11": "",
    "latitude": 40.712082,
    "longitude": -73.88954
  },
  {
    "stationName": "Fresh Pond Rd",
    "route1": "M",
    "route2": "",
    "route3": "",
    "route4": "",
    "route5": "",
    "route6": "",
    "route7": "",
    "route8": "",
    "route9": "",
    "route10": "",
    "route11": "",
    "latitude": 40.705955,
    "longitude": -73.896232
  },
  {
    "stationName": "Forest Av",
    "route1": "M",
    "route2": "",
    "route3": "",
    "route4": "",
    "route5": "",
    "route6": "",
    "route7": "",
    "route8": "",
    "route9": "",
    "route10": "",
    "route11": "",
    "latitude": 40.704729,
    "longitude": -73.902243
  },
  {
    "stationName": "Seneca Av",
    "route1": "M",
    "route2": "",
    "route3": "",
    "route4": "",
    "route5": "",
    "route6": "",
    "route7": "",
    "route8": "",
    "route9": "",
    "route10": "",
    "route11": "",
    "latitude": 40.70278,
    "longitude": -73.907515
  },
  {
    "stationName": "Knickerbocker Av",
    "route1": "M",
    "route2": "",
    "route3": "",
    "route4": "",
    "route5": "",
    "route6": "",
    "route7": "",
    "route8": "",
    "route9": "",
    "route10": "",
    "route11": "",
    "latitude": 40.698717,
    "longitude": -73.918655
  },
  {
    "stationName": "Central Av",
    "route1": "M",
    "route2": "",
    "route3": "",
    "route4": "",
    "route5": "",
    "route6": "",
    "route7": "",
    "route8": "",
    "route9": "",
    "route10": "",
    "route11": "",
    "latitude": 40.698033,
    "longitude": -73.926371
  },
  {
    "stationName": "8th Av",
    "route1": "A",
    "route2": "C",
    "route3": "E",
    "route4": "L",
    "route5": "",
    "route6": "",
    "route7": "",
    "route8": "",
    "route9": "",
    "route10": "",
    "route11": "",
    "latitude": 40.73955,
    "longitude": -74.002389
  },
  {
    "stationName": "3rd Av",
    "route1": "L",
    "route2": "",
    "route3": "",
    "route4": "",
    "route5": "",
    "route6": "",
    "route7": "",
    "route8": "",
    "route9": "",
    "route10": "",
    "route11": "",
    "latitude": 40.732961,
    "longitude": -73.986657
  },
  {
    "stationName": "1st Av",
    "route1": "L",
    "route2": "",
    "route3": "",
    "route4": "",
    "route5": "",
    "route6": "",
    "route7": "",
    "route8": "",
    "route9": "",
    "route10": "",
    "route11": "",
    "latitude": 40.731397,
    "longitude": -73.982112
  },
  {
    "stationName": "Bedford Av",
    "route1": "L",
    "route2": "",
    "route3": "",
    "route4": "",
    "route5": "",
    "route6": "",
    "route7": "",
    "route8": "",
    "route9": "",
    "route10": "",
    "route11": "",
    "latitude": 40.717714,
    "longitude": -73.957695
  },
  {
    "stationName": "Graham Av",
    "route1": "L",
    "route2": "",
    "route3": "",
    "route4": "",
    "route5": "",
    "route6": "",
    "route7": "",
    "route8": "",
    "route9": "",
    "route10": "",
    "route11": "",
    "latitude": 40.714661,
    "longitude": -73.944287
  },
  {
    "stationName": "Grand St",
    "route1": "L",
    "route2": "",
    "route3": "",
    "route4": "",
    "route5": "",
    "route6": "",
    "route7": "",
    "route8": "",
    "route9": "",
    "route10": "",
    "route11": "",
    "latitude": 40.711912,
    "longitude": -73.940433
  },
  {
    "stationName": "Montrose Av",
    "route1": "L",
    "route2": "",
    "route3": "",
    "route4": "",
    "route5": "",
    "route6": "",
    "route7": "",
    "route8": "",
    "route9": "",
    "route10": "",
    "route11": "",
    "latitude": 40.707723,
    "longitude": -73.940044
  },
  {
    "stationName": "Morgan Av",
    "route1": "L",
    "route2": "",
    "route3": "",
    "route4": "",
    "route5": "",
    "route6": "",
    "route7": "",
    "route8": "",
    "route9": "",
    "route10": "",
    "route11": "",
    "latitude": 40.706317,
    "longitude": -73.931696
  },
  {
    "stationName": "Jefferson St",
    "route1": "L",
    "route2": "",
    "route3": "",
    "route4": "",
    "route5": "",
    "route6": "",
    "route7": "",
    "route8": "",
    "route9": "",
    "route10": "",
    "route11": "",
    "latitude": 40.705943,
    "longitude": -73.922036
  },
  {
    "stationName": "DeKalb Av",
    "route1": "L",
    "route2": "",
    "route3": "",
    "route4": "",
    "route5": "",
    "route6": "",
    "route7": "",
    "route8": "",
    "route9": "",
    "route10": "",
    "route11": "",
    "latitude": 40.704153,
    "longitude": -73.919273
  },
  {
    "stationName": "Halsey St",
    "route1": "L",
    "route2": "",
    "route3": "",
    "route4": "",
    "route5": "",
    "route6": "",
    "route7": "",
    "route8": "",
    "route9": "",
    "route10": "",
    "route11": "",
    "latitude": 40.696094,
    "longitude": -73.90443
  },
  {
    "stationName": "Wilson Av",
    "route1": "L",
    "route2": "",
    "route3": "",
    "route4": "",
    "route5": "",
    "route6": "",
    "route7": "",
    "route8": "",
    "route9": "",
    "route10": "",
    "route11": "",
    "latitude": 40.688805,
    "longitude": -73.904741
  },
  {
    "stationName": "Bushwick Av",
    "route1": "L",
    "route2": "",
    "route3": "",
    "route4": "",
    "route5": "",
    "route6": "",
    "route7": "",
    "route8": "",
    "route9": "",
    "route10": "",
    "route11": "",
    "latitude": 40.6823,
    "longitude": -73.905149
  },
  {
    "stationName": "Atlantic Av",
    "route1": "L",
    "route2": "",
    "route3": "",
    "route4": "",
    "route5": "",
    "route6": "",
    "route7": "",
    "route8": "",
    "route9": "",
    "route10": "",
    "route11": "",
    "latitude": 40.67538,
    "longitude": -73.902612
  },
  {
    "stationName": "Sutter Av",
    "route1": "L",
    "route2": "",
    "route3": "",
    "route4": "",
    "route5": "",
    "route6": "",
    "route7": "",
    "route8": "",
    "route9": "",
    "route10": "",
    "route11": "",
    "latitude": 40.668527,
    "longitude": -73.901765
  },
  {
    "stationName": "Livonia Av",
    "route1": "L",
    "route2": "",
    "route3": "",
    "route4": "",
    "route5": "",
    "route6": "",
    "route7": "",
    "route8": "",
    "route9": "",
    "route10": "",
    "route11": "",
    "latitude": 40.663742,
    "longitude": -73.900522
  },
  {
    "stationName": "New Lots Av",
    "route1": "L",
    "route2": "",
    "route3": "",
    "route4": "",
    "route5": "",
    "route6": "",
    "route7": "",
    "route8": "",
    "route9": "",
    "route10": "",
    "route11": "",
    "latitude": 40.659041,
    "longitude": -73.899409
  },
  {
    "stationName": "East 105th St",
    "route1": "L",
    "route2": "",
    "route3": "",
    "route4": "",
    "route5": "",
    "route6": "",
    "route7": "",
    "route8": "",
    "route9": "",
    "route10": "",
    "route11": "",
    "latitude": 40.651462,
    "longitude": -73.899191
  },
  {
    "stationName": "Canarsie - Rockaway Parkway",
    "route1": "L",
    "route2": "",
    "route3": "",
    "route4": "",
    "route5": "",
    "route6": "",
    "route7": "",
    "route8": "",
    "route9": "",
    "route10": "",
    "route11": "",
    "latitude": 40.64556,
    "longitude": -73.902524
  },
  {
    "stationName": "Franklin Av",
    "route1": "A",
    "route2": "FS",
    "route3": "",
    "route4": "",
    "route5": "",
    "route6": "",
    "route7": "",
    "route8": "",
    "route9": "",
    "route10": "",
    "route11": "",
    "latitude": 40.681051,
    "longitude": -73.95584
  },
  {
    "stationName": "Park Place",
    "route1": "FS",
    "route2": "",
    "route3": "",
    "route4": "",
    "route5": "",
    "route6": "",
    "route7": "",
    "route8": "",
    "route9": "",
    "route10": "",
    "route11": "",
    "latitude": 40.674516,
    "longitude": -73.957932
  },
  {
    "stationName": "Botanic Gardens",
    "route1": "FS",
    "route2": 2,
    "route3": 3,
    "route4": 4,
    "route5": 5,
    "route6": "",
    "route7": "",
    "route8": "",
    "route9": "",
    "route10": "",
    "route11": "",
    "latitude": 40.670588,
    "longitude": -73.959093
  },
  {
    "stationName": "Inwood - 207th St",
    "route1": "A",
    "route2": "",
    "route3": "",
    "route4": "",
    "route5": "",
    "route6": "",
    "route7": "",
    "route8": "",
    "route9": "",
    "route10": "",
    "route11": "",
    "latitude": 40.867892,
    "longitude": -73.921234
  },
  {
    "stationName": "Dyckman St-200th St",
    "route1": "A",
    "route2": "",
    "route3": "",
    "route4": "",
    "route5": "",
    "route6": "",
    "route7": "",
    "route8": "",
    "route9": "",
    "route10": "",
    "route11": "",
    "latitude": 40.865758,
    "longitude": -73.927266
  },
  {
    "stationName": "190th St",
    "route1": "A",
    "route2": "",
    "route3": "",
    "route4": "",
    "route5": "",
    "route6": "",
    "route7": "",
    "route8": "",
    "route9": "",
    "route10": "",
    "route11": "",
    "latitude": 40.858899,
    "longitude": -73.932702
  },
  {
    "stationName": "181st St",
    "route1": "A",
    "route2": "",
    "route3": "",
    "route4": "",
    "route5": "",
    "route6": "",
    "route7": "",
    "route8": "",
    "route9": "",
    "route10": "",
    "route11": "",
    "latitude": 40.852759,
    "longitude": -73.936636
  },
  {
    "stationName": "175th St",
    "route1": "A",
    "route2": "",
    "route3": "",
    "route4": "",
    "route5": "",
    "route6": "",
    "route7": "",
    "route8": "",
    "route9": "",
    "route10": "",
    "route11": "",
    "latitude": 40.847946,
    "longitude": -73.939375
  },
  {
    "stationName": "168th St - Washington Heights",
    "route1": "A",
    "route2": "C",
    "route3": "",
    "route4": "",
    "route5": "",
    "route6": "",
    "route7": "",
    "route8": "",
    "route9": "",
    "route10": "",
    "route11": "",
    "latitude": 40.840741,
    "longitude": -73.939252
  },
  {
    "stationName": "163rd St - Amsterdam Av",
    "route1": "C",
    "route2": "",
    "route3": "",
    "route4": "",
    "route5": "",
    "route6": "",
    "route7": "",
    "route8": "",
    "route9": "",
    "route10": "",
    "route11": "",
    "latitude": 40.835192,
    "longitude": -73.940146
  },
  {
    "stationName": "155th St",
    "route1": "C",
    "route2": "",
    "route3": "",
    "route4": "",
    "route5": "",
    "route6": "",
    "route7": "",
    "route8": "",
    "route9": "",
    "route10": "",
    "route11": "",
    "latitude": 40.830744,
    "longitude": -73.941597
  },
  {
    "stationName": "145th St",
    "route1": "A",
    "route2": "B",
    "route3": "C",
    "route4": "D",
    "route5": "",
    "route6": "",
    "route7": "",
    "route8": "",
    "route9": "",
    "route10": "",
    "route11": "",
    "latitude": 40.823791,
    "longitude": -73.944726
  },
  {
    "stationName": "135th St",
    "route1": "B",
    "route2": "C",
    "route3": "",
    "route4": "",
    "route5": "",
    "route6": "",
    "route7": "",
    "route8": "",
    "route9": "",
    "route10": "",
    "route11": "",
    "latitude": 40.817125,
    "longitude": -73.948225
  },
  {
    "stationName": "125th St",
    "route1": "A",
    "route2": "B",
    "route3": "C",
    "route4": "D",
    "route5": "",
    "route6": "",
    "route7": "",
    "route8": "",
    "route9": "",
    "route10": "",
    "route11": "",
    "latitude": 40.810879,
    "longitude": -73.952318
  },
  {
    "stationName": "116th St",
    "route1": "B",
    "route2": "C",
    "route3": "",
    "route4": "",
    "route5": "",
    "route6": "",
    "route7": "",
    "route8": "",
    "route9": "",
    "route10": "",
    "route11": "",
    "latitude": 40.804312,
    "longitude": -73.955643
  },
  {
    "stationName": "Cathedral Parkway-110th St",
    "route1": "B",
    "route2": "C",
    "route3": "",
    "route4": "",
    "route5": "",
    "route6": "",
    "route7": "",
    "route8": "",
    "route9": "",
    "route10": "",
    "route11": "",
    "latitude": 40.800002,
    "longitude": -73.958882
  },
  {
    "stationName": "103rd St",
    "route1": "B",
    "route2": "C",
    "route3": "",
    "route4": "",
    "route5": "",
    "route6": "",
    "route7": "",
    "route8": "",
    "route9": "",
    "route10": "",
    "route11": "",
    "latitude": 40.796263,
    "longitude": -73.96161
  },
  {
    "stationName": "96th St",
    "route1": "B",
    "route2": "C",
    "route3": "",
    "route4": "",
    "route5": "",
    "route6": "",
    "route7": "",
    "route8": "",
    "route9": "",
    "route10": "",
    "route11": "",
    "latitude": 40.791642,
    "longitude": -73.965009
  },
  {
    "stationName": "86th St",
    "route1": "B",
    "route2": "C",
    "route3": "",
    "route4": "",
    "route5": "",
    "route6": "",
    "route7": "",
    "route8": "",
    "route9": "",
    "route10": "",
    "route11": "",
    "latitude": 40.785195,
    "longitude": -73.969596
  },
  {
    "stationName": "81st St - Museum of Natural History",
    "route1": "B",
    "route2": "C",
    "route3": "",
    "route4": "",
    "route5": "",
    "route6": "",
    "route7": "",
    "route8": "",
    "route9": "",
    "route10": "",
    "route11": "",
    "latitude": 40.781976,
    "longitude": -73.972027
  },
  {
    "stationName": "72nd St",
    "route1": "B",
    "route2": "C",
    "route3": "",
    "route4": "",
    "route5": "",
    "route6": "",
    "route7": "",
    "route8": "",
    "route9": "",
    "route10": "",
    "route11": "",
    "latitude": 40.776217,
    "longitude": -73.976247
  },
  {
    "stationName": "59th St",
    "route1": "A",
    "route2": "B",
    "route3": "C",
    "route4": "D",
    "route5": 1,
    "route6": "",
    "route7": "",
    "route8": "",
    "route9": "",
    "route10": "",
    "route11": "",
    "latitude": 40.766944,
    "longitude": -73.982941
  },
  {
    "stationName": "50th St",
    "route1": "C",
    "route2": "E",
    "route3": "",
    "route4": "",
    "route5": "",
    "route6": "",
    "route7": "",
    "route8": "",
    "route9": "",
    "route10": "",
    "route11": "",
    "latitude": 40.761968,
    "longitude": -73.986662
  },
  {
    "stationName": "42nd St",
    "route1": "A",
    "route2": "C",
    "route3": "E",
    "route4": "N",
    "route5": "Q",
    "route6": "R",
    "route7": "S",
    "route8": 1,
    "route9": 2,
    "route10": 3,
    "route11": 7,
    "latitude": 40.757286,
    "longitude": -73.989582
  },
  {
    "stationName": "34th St",
    "route1": "A",
    "route2": "C",
    "route3": "E",
    "route4": "",
    "route5": "",
    "route6": "",
    "route7": "",
    "route8": "",
    "route9": "",
    "route10": "",
    "route11": "",
    "latitude": 40.751996,
    "longitude": 73.993327
  },
  {
    "stationName": "23rd St",
    "route1": "C",
    "route2": "E",
    "route3": "",
    "route4": "",
    "route5": "",
    "route6": "",
    "route7": "",
    "route8": "",
    "route9": "",
    "route10": "",
    "route11": "",
    "latitude": 40.745102,
    "longitude": -73.998365
  },
  {
    "stationName": "14th St",
    "route1": "A",
    "route2": "C",
    "route3": "E",
    "route4": "L",
    "route5": "",
    "route6": "",
    "route7": "",
    "route8": "",
    "route9": "",
    "route10": "",
    "route11": "",
    "latitude": 40.740938,
    "longitude": -74.001919
  },
  {
    "stationName": "West 4th St",
    "route1": "A",
    "route2": "B",
    "route3": "C",
    "route4": "D",
    "route5": "E",
    "route6": "F",
    "route7": "M",
    "route8": "",
    "route9": "",
    "route10": "",
    "route11": "",
    "latitude": 40.731086,
    "longitude": -74.001209
  },
  {
    "stationName": "Spring St",
    "route1": "C",
    "route2": "E",
    "route3": "",
    "route4": "",
    "route5": "",
    "route6": "",
    "route7": "",
    "route8": "",
    "route9": "",
    "route10": "",
    "route11": "",
    "latitude": 40.725583,
    "longitude": -74.003747
  },
  {
    "stationName": "Canal St",
    "route1": "A",
    "route2": "C",
    "route3": "E",
    "route4": "",
    "route5": "",
    "route6": "",
    "route7": "",
    "route8": "",
    "route9": "",
    "route10": "",
    "route11": "",
    "latitude": 40.720704,
    "longitude": -74.004999
  },
  {
    "stationName": "Chambers St",
    "route1": "A",
    "route2": "C",
    "route3": "E",
    "route4": 2,
    "route5": 3,
    "route6": "",
    "route7": "",
    "route8": "",
    "route9": "",
    "route10": "",
    "route11": "",
    "latitude": 40.713753,
    "longitude": -74.009046
  },
  {
    "stationName": "World Trade Center",
    "route1": "A",
    "route2": "C",
    "route3": "E",
    "route4": 2,
    "route5": 3,
    "route6": "",
    "route7": "",
    "route8": "",
    "route9": "",
    "route10": "",
    "route11": "",
    "latitude": 40.713333,
    "longitude": -74.009033
  },
  {
    "stationName": "Broadway-Nassau",
    "route1": "A",
    "route2": "C",
    "route3": "J",
    "route4": "Z",
    "route5": 2,
    "route6": 3,
    "route7": 4,
    "route8": 5,
    "route9": "",
    "route10": "",
    "route11": "",
    "latitude": 40.710692,
    "longitude": -74.008428
  },
  {
    "stationName": "High St",
    "route1": "A",
    "route2": "C",
    "route3": "J",
    "route4": "Z",
    "route5": 2,
    "route6": 3,
    "route7": 4,
    "route8": 5,
    "route9": "",
    "route10": "",
    "route11": "",
    "latitude": 40.699405,
    "longitude": -73.991413
  },
  {
    "stationName": "Jay St - Borough Hall",
    "route1": "A",
    "route2": "C",
    "route3": "F",
    "route4": "R",
    "route5": "",
    "route6": "",
    "route7": "",
    "route8": "",
    "route9": "",
    "route10": "",
    "route11": "",
    "latitude": 40.692335,
    "longitude": -73.987446
  },
  {
    "stationName": "Hoyt & Schermerhorn",
    "route1": "A",
    "route2": "C",
    "route3": "G",
    "route4": "",
    "route5": "",
    "route6": "",
    "route7": "",
    "route8": "",
    "route9": "",
    "route10": "",
    "route11": "",
    "latitude": 40.689085,
    "longitude": -73.985941
  },
  {
    "stationName": "Lafayette Av",
    "route1": "C",
    "route2": "",
    "route3": "",
    "route4": "",
    "route5": "",
    "route6": "",
    "route7": "",
    "route8": "",
    "route9": "",
    "route10": "",
    "route11": "",
    "latitude": 40.685789,
    "longitude": -73.97276
  },
  {
    "stationName": "Clinton & Washington Avs",
    "route1": "C",
    "route2": "",
    "route3": "",
    "route4": "",
    "route5": "",
    "route6": "",
    "route7": "",
    "route8": "",
    "route9": "",
    "route10": "",
    "route11": "",
    "latitude": 40.683653,
    "longitude": -73.966797
  },
  {
    "stationName": "Nostrand Av",
    "route1": "A",
    "route2": "C",
    "route3": "",
    "route4": "",
    "route5": "",
    "route6": "",
    "route7": "",
    "route8": "",
    "route9": "",
    "route10": "",
    "route11": "",
    "latitude": 40.680547,
    "longitude": -73.949515
  },
  {
    "stationName": "Kingston-Throop",
    "route1": "A",
    "route2": "C",
    "route3": "",
    "route4": "",
    "route5": "",
    "route6": "",
    "route7": "",
    "route8": "",
    "route9": "",
    "route10": "",
    "route11": "",
    "latitude": 40.68001,
    "longitude": -73.940247
  },
  {
    "stationName": "Utica Av",
    "route1": "A",
    "route2": "C",
    "route3": "",
    "route4": "",
    "route5": "",
    "route6": "",
    "route7": "",
    "route8": "",
    "route9": "",
    "route10": "",
    "route11": "",
    "latitude": 40.679095,
    "longitude": -73.930044
  },
  {
    "stationName": "Ralph Av",
    "route1": "A",
    "route2": "C",
    "route3": "",
    "route4": "",
    "route5": "",
    "route6": "",
    "route7": "",
    "route8": "",
    "route9": "",
    "route10": "",
    "route11": "",
    "latitude": 40.678702,
    "longitude": -73.921552
  },
  {
    "stationName": "Rockaway Av",
    "route1": "A",
    "route2": "C",
    "route3": "",
    "route4": "",
    "route5": "",
    "route6": "",
    "route7": "",
    "route8": "",
    "route9": "",
    "route10": "",
    "route11": "",
    "latitude": 40.678594,
    "longitude": -73.913732
  },
  {
    "stationName": "Broadway Junction-East New York",
    "route1": "A",
    "route2": "C",
    "route3": "J",
    "route4": "L",
    "route5": "",
    "route6": "",
    "route7": "",
    "route8": "",
    "route9": "",
    "route10": "",
    "route11": "",
    "latitude": 40.678334,
    "longitude": -73.903922
  },
  {
    "stationName": "Liberty Av",
    "route1": "A",
    "route2": "C",
    "route3": "",
    "route4": "",
    "route5": "",
    "route6": "",
    "route7": "",
    "route8": "",
    "route9": "",
    "route10": "",
    "route11": "",
    "latitude": 40.674242,
    "longitude": -73.896645
  },
  {
    "stationName": "Van Siclen Av",
    "route1": "A",
    "route2": "C",
    "route3": "",
    "route4": "",
    "route5": "",
    "route6": "",
    "route7": "",
    "route8": "",
    "route9": "",
    "route10": "",
    "route11": "",
    "latitude": 40.672479,
    "longitude": -73.890164
  },
  {
    "stationName": "Shepherd Av",
    "route1": "A",
    "route2": "C",
    "route3": "",
    "route4": "",
    "route5": "",
    "route6": "",
    "route7": "",
    "route8": "",
    "route9": "",
    "route10": "",
    "route11": "",
    "latitude": 40.67397,
    "longitude": -73.880667
  },
  {
    "stationName": "Euclid Av",
    "route1": "A",
    "route2": "C",
    "route3": "",
    "route4": "",
    "route5": "",
    "route6": "",
    "route7": "",
    "route8": "",
    "route9": "",
    "route10": "",
    "route11": "",
    "latitude": 40.675554,
    "longitude": -73.871875
  },
  {
    "stationName": "Grant Av",
    "route1": "A",
    "route2": "",
    "route3": "",
    "route4": "",
    "route5": "",
    "route6": "",
    "route7": "",
    "route8": "",
    "route9": "",
    "route10": "",
    "route11": "",
    "latitude": 40.676735,
    "longitude": -73.865491
  },
  {
    "stationName": "80th St-Hudson St",
    "route1": "A",
    "route2": "",
    "route3": "",
    "route4": "",
    "route5": "",
    "route6": "",
    "route7": "",
    "route8": "",
    "route9": "",
    "route10": "",
    "route11": "",
    "latitude": 40.679371,
    "longitude": -73.858024
  },
  {
    "stationName": "88th St-Boyd Av",
    "route1": "A",
    "route2": "",
    "route3": "",
    "route4": "",
    "route5": "",
    "route6": "",
    "route7": "",
    "route8": "",
    "route9": "",
    "route10": "",
    "route11": "",
    "latitude": 40.679828,
    "longitude": -73.850401
  },
  {
    "stationName": "Rockaway Blvd",
    "route1": "A",
    "route2": "",
    "route3": "",
    "route4": "",
    "route5": "",
    "route6": "",
    "route7": "",
    "route8": "",
    "route9": "",
    "route10": "",
    "route11": "",
    "latitude": 40.680158,
    "longitude": -73.845131
  },
  {
    "stationName": "104th St-Oxford Av",
    "route1": "A",
    "route2": "",
    "route3": "",
    "route4": "",
    "route5": "",
    "route6": "",
    "route7": "",
    "route8": "",
    "route9": "",
    "route10": "",
    "route11": "",
    "latitude": 40.681994,
    "longitude": -73.836742
  },
  {
    "stationName": "111th St-Greenwood Av",
    "route1": "A",
    "route2": "",
    "route3": "",
    "route4": "",
    "route5": "",
    "route6": "",
    "route7": "",
    "route8": "",
    "route9": "",
    "route10": "",
    "route11": "",
    "latitude": 40.684732,
    "longitude": -73.830898
  },
  {
    "stationName": "Lefferts Blvd",
    "route1": "A",
    "route2": "",
    "route3": "",
    "route4": "",
    "route5": "",
    "route6": "",
    "route7": "",
    "route8": "",
    "route9": "",
    "route10": "",
    "route11": "",
    "latitude": 40.686103,
    "longitude": -73.824314
  },
  {
    "stationName": "Aqueduct-North Conduit Av",
    "route1": "A",
    "route2": "",
    "route3": "",
    "route4": "",
    "route5": "",
    "route6": "",
    "route7": "",
    "route8": "",
    "route9": "",
    "route10": "",
    "route11": "",
    "latitude": 40.667018,
    "longitude": -73.83348
  },
  {
    "stationName": "Howard Beach",
    "route1": "A",
    "route2": "",
    "route3": "",
    "route4": "",
    "route5": "",
    "route6": "",
    "route7": "",
    "route8": "",
    "route9": "",
    "route10": "",
    "route11": "",
    "latitude": 40.660465,
    "longitude": -73.830518
  },
  {
    "stationName": "Broad Channel",
    "route1": "A",
    "route2": "H",
    "route3": "",
    "route4": "",
    "route5": "",
    "route6": "",
    "route7": "",
    "route8": "",
    "route9": "",
    "route10": "",
    "route11": "",
    "latitude": 40.608007,
    "longitude": -73.815967
  },
  {
    "stationName": "Beach 90th St",
    "route1": "H",
    "route2": "",
    "route3": "",
    "route4": "",
    "route5": "",
    "route6": "",
    "route7": "",
    "route8": "",
    "route9": "",
    "route10": "",
    "route11": "",
    "latitude": 40.58808,
    "longitude": -73.813907
  },
  {
    "stationName": "Beach 98th St",
    "route1": "H",
    "route2": "",
    "route3": "",
    "route4": "",
    "route5": "",
    "route6": "",
    "route7": "",
    "route8": "",
    "route9": "",
    "route10": "",
    "route11": "",
    "latitude": 40.58554,
    "longitude": -73.820345
  },
  {
    "stationName": "Beach 105th St",
    "route1": "H",
    "route2": "",
    "route3": "",
    "route4": "",
    "route5": "",
    "route6": "",
    "route7": "",
    "route8": "",
    "route9": "",
    "route10": "",
    "route11": "",
    "latitude": 40.583187,
    "longitude": -73.827388
  },
  {
    "stationName": "Rockaway Park-Beach 116th",
    "route1": "H",
    "route2": "",
    "route3": "",
    "route4": "",
    "route5": "",
    "route6": "",
    "route7": "",
    "route8": "",
    "route9": "",
    "route10": "",
    "route11": "",
    "latitude": 40.58051,
    "longitude": -73.837418
  },
  {
    "stationName": "Beach 67th St",
    "route1": "A",
    "route2": "",
    "route3": "",
    "route4": "",
    "route5": "",
    "route6": "",
    "route7": "",
    "route8": "",
    "route9": "",
    "route10": "",
    "route11": "",
    "latitude": 40.590744,
    "longitude": -73.797789
  },
  {
    "stationName": "Beach 60th St",
    "route1": "A",
    "route2": "",
    "route3": "",
    "route4": "",
    "route5": "",
    "route6": "",
    "route7": "",
    "route8": "",
    "route9": "",
    "route10": "",
    "route11": "",
    "latitude": 40.592269,
    "longitude": -73.789578
  },
  {
    "stationName": "Beach 44th St",
    "route1": "A",
    "route2": "",
    "route3": "",
    "route4": "",
    "route5": "",
    "route6": "",
    "route7": "",
    "route8": "",
    "route9": "",
    "route10": "",
    "route11": "",
    "latitude": 40.593106,
    "longitude": -73.775743
  },
  {
    "stationName": "Beach 36th St",
    "route1": "A",
    "route2": "",
    "route3": "",
    "route4": "",
    "route5": "",
    "route6": "",
    "route7": "",
    "route8": "",
    "route9": "",
    "route10": "",
    "route11": "",
    "latitude": 40.595617,
    "longitude": -73.768032
  },
  {
    "stationName": "Beach 25th St",
    "route1": "A",
    "route2": "",
    "route3": "",
    "route4": "",
    "route5": "",
    "route6": "",
    "route7": "",
    "route8": "",
    "route9": "",
    "route10": "",
    "route11": "",
    "latitude": 40.599708,
    "longitude": -73.761959
  },
  {
    "stationName": "Far Rockaway-Mott Av",
    "route1": "A",
    "route2": "",
    "route3": "",
    "route4": "",
    "route5": "",
    "route6": "",
    "route7": "",
    "route8": "",
    "route9": "",
    "route10": "",
    "route11": "",
    "latitude": 40.604657,
    "longitude": -73.754178
  },
  {
    "stationName": "Norwood-205th St",
    "route1": "D",
    "route2": "",
    "route3": "",
    "route4": "",
    "route5": "",
    "route6": "",
    "route7": "",
    "route8": "",
    "route9": "",
    "route10": "",
    "route11": "",
    "latitude": 40.874902,
    "longitude": -73.879267
  },
  {
    "stationName": "Bedford Park Blvd",
    "route1": "B",
    "route2": "D",
    "route3": "",
    "route4": "",
    "route5": "",
    "route6": "",
    "route7": "",
    "route8": "",
    "route9": "",
    "route10": "",
    "route11": "",
    "latitude": 40.872135,
    "longitude": -73.887459
  },
  {
    "stationName": "Kingsbridge Rd",
    "route1": "B",
    "route2": "D",
    "route3": "",
    "route4": "",
    "route5": "",
    "route6": "",
    "route7": "",
    "route8": "",
    "route9": "",
    "route10": "",
    "route11": "",
    "latitude": 40.868114,
    "longitude": -73.893195
  },
  {
    "stationName": "Fordham Rd",
    "route1": "B",
    "route2": "D",
    "route3": "",
    "route4": "",
    "route5": "",
    "route6": "",
    "route7": "",
    "route8": "",
    "route9": "",
    "route10": "",
    "route11": "",
    "latitude": 40.861401,
    "longitude": -73.898098
  },
  {
    "stationName": "182nd-183rd Sts",
    "route1": "B",
    "route2": "D",
    "route3": "",
    "route4": "",
    "route5": "",
    "route6": "",
    "route7": "",
    "route8": "",
    "route9": "",
    "route10": "",
    "route11": "",
    "latitude": 40.856038,
    "longitude": -73.90114
  },
  {
    "stationName": "Tremont Av",
    "route1": "B",
    "route2": "D",
    "route3": "",
    "route4": "",
    "route5": "",
    "route6": "",
    "route7": "",
    "route8": "",
    "route9": "",
    "route10": "",
    "route11": "",
    "latitude": 40.849864,
    "longitude": -73.906084
  },
  {
    "stationName": "174-175th Sts",
    "route1": "B",
    "route2": "D",
    "route3": "",
    "route4": "",
    "route5": "",
    "route6": "",
    "route7": "",
    "route8": "",
    "route9": "",
    "route10": "",
    "route11": "",
    "latitude": 40.844933,
    "longitude": -73.911212
  },
  {
    "stationName": "170th St",
    "route1": "B",
    "route2": "D",
    "route3": "",
    "route4": "",
    "route5": "",
    "route6": "",
    "route7": "",
    "route8": "",
    "route9": "",
    "route10": "",
    "route11": "",
    "latitude": 40.839751,
    "longitude": -73.912743
  },
  {
    "stationName": "167th St",
    "route1": "B",
    "route2": "D",
    "route3": "",
    "route4": "",
    "route5": "",
    "route6": "",
    "route7": "",
    "route8": "",
    "route9": "",
    "route10": "",
    "route11": "",
    "latitude": 40.834466,
    "longitude": -73.918155
  },
  {
    "stationName": "Yankee Stadium-161st St",
    "route1": "B",
    "route2": "D",
    "route3": 4,
    "route4": "",
    "route5": "",
    "route6": "",
    "route7": "",
    "route8": "",
    "route9": "",
    "route10": "",
    "route11": "",
    "latitude": 40.82784,
    "longitude": -73.925715
  },
  {
    "stationName": "155th St",
    "route1": "B",
    "route2": "D",
    "route3": "",
    "route4": "",
    "route5": "",
    "route6": "",
    "route7": "",
    "route8": "",
    "route9": "",
    "route10": "",
    "route11": "",
    "latitude": 40.830313,
    "longitude": -73.936687
  },
  {
    "stationName": "21st St",
    "route1": "F",
    "route2": "",
    "route3": "",
    "route4": "",
    "route5": "",
    "route6": "",
    "route7": "",
    "route8": "",
    "route9": "",
    "route10": "",
    "route11": "",
    "latitude": 40.754322,
    "longitude": -73.942374
  },
  {
    "stationName": "Roosevelt Island",
    "route1": "F",
    "route2": "",
    "route3": "",
    "route4": "",
    "route5": "",
    "route6": "",
    "route7": "",
    "route8": "",
    "route9": "",
    "route10": "",
    "route11": "",
    "latitude": 40.759016,
    "longitude": -73.953505
  },
  {
    "stationName": "Lexington Av",
    "route1": "F",
    "route2": "",
    "route3": "",
    "route4": "",
    "route5": "",
    "route6": "",
    "route7": "",
    "route8": "",
    "route9": "",
    "route10": "",
    "route11": "",
    "latitude": 40.764884,
    "longitude": -73.966514
  },
  {
    "stationName": "57th St",
    "route1": "F",
    "route2": "",
    "route3": "",
    "route4": "",
    "route5": "",
    "route6": "",
    "route7": "",
    "route8": "",
    "route9": "",
    "route10": "",
    "route11": "",
    "latitude": 40.763874,
    "longitude": -73.977358
  },
  {
    "stationName": "47-50th Sts Rockefeller Center",
    "route1": "B",
    "route2": "D",
    "route3": "F",
    "route4": "M",
    "route5": "",
    "route6": "",
    "route7": "",
    "route8": "",
    "route9": "",
    "route10": "",
    "route11": "",
    "latitude": 40.759434,
    "longitude": -73.981001
  },
  {
    "stationName": "47-50th Sts Rockefeller Center",
    "route1": "B",
    "route2": "D",
    "route3": "F",
    "route4": "M",
    "route5": 7,
    "route6": "",
    "route7": "",
    "route8": "",
    "route9": "",
    "route10": "",
    "route11": "",
    "latitude": 40.758996,
    "longitude": -73.980788
  },
  {
    "stationName": "42nd St",
    "route1": "B",
    "route2": "D",
    "route3": "F",
    "route4": "M",
    "route5": 7,
    "route6": "",
    "route7": "",
    "route8": "",
    "route9": "",
    "route10": "",
    "route11": "",
    "latitude": 40.754849,
    "longitude": -73.984627
  },
  {
    "stationName": "34th St",
    "route1": "B",
    "route2": "D",
    "route3": "F",
    "route4": "M",
    "route5": "N",
    "route6": "Q",
    "route7": "R",
    "route8": "",
    "route9": "",
    "route10": "",
    "route11": "",
    "latitude": 40.749615,
    "longitude": -73.988159
  },
  {
    "stationName": "23rd St",
    "route1": "F",
    "route2": "M",
    "route3": "",
    "route4": "",
    "route5": "",
    "route6": "",
    "route7": "",
    "route8": "",
    "route9": "",
    "route10": "",
    "route11": "",
    "latitude": 40.742659,
    "longitude": -73.992489
  },
  {
    "stationName": "14th St",
    "route1": "F",
    "route2": "L",
    "route3": "M",
    "route4": 1,
    "route5": 2,
    "route6": 3,
    "route7": "",
    "route8": "",
    "route9": "",
    "route10": "",
    "route11": "",
    "latitude": 40.737423,
    "longitude": -73.99722
  },
  {
    "stationName": "Broadway-Lafayette St",
    "route1": "B",
    "route2": "D",
    "route3": "F",
    "route4": "M",
    "route5": 6,
    "route6": "",
    "route7": "",
    "route8": "",
    "route9": "",
    "route10": "",
    "route11": "",
    "latitude": 40.725202,
    "longitude": -73.996583
  },
  {
    "stationName": "Grand St",
    "route1": "B",
    "route2": "D",
    "route3": "",
    "route4": "",
    "route5": "",
    "route6": "",
    "route7": "",
    "route8": "",
    "route9": "",
    "route10": "",
    "route11": "",
    "latitude": 40.718155,
    "longitude": -73.993452
  },
  {
    "stationName": "2nd Av",
    "route1": "F",
    "route2": "",
    "route3": "",
    "route4": "",
    "route5": "",
    "route6": "",
    "route7": "",
    "route8": "",
    "route9": "",
    "route10": "",
    "route11": "",
    "latitude": 40.722807,
    "longitude": -73.988942
  },
  {
    "stationName": "Delancey St",
    "route1": "F",
    "route2": "J",
    "route3": "M",
    "route4": "Z",
    "route5": "",
    "route6": "",
    "route7": "",
    "route8": "",
    "route9": "",
    "route10": "",
    "route11": "",
    "latitude": 40.718781,
    "longitude": -73.988233
  },
  {
    "stationName": "East Broadway",
    "route1": "F",
    "route2": "",
    "route3": "",
    "route4": "",
    "route5": "",
    "route6": "",
    "route7": "",
    "route8": "",
    "route9": "",
    "route10": "",
    "route11": "",
    "latitude": 40.712727,
    "longitude": -73.990126
  },
  {
    "stationName": "York St",
    "route1": "F",
    "route2": "",
    "route3": "",
    "route4": "",
    "route5": "",
    "route6": "",
    "route7": "",
    "route8": "",
    "route9": "",
    "route10": "",
    "route11": "",
    "latitude": 40.70138,
    "longitude": -73.986655
  },
  {
    "stationName": "Bergen St",
    "route1": "F",
    "route2": "G",
    "route3": "",
    "route4": "",
    "route5": "",
    "route6": "",
    "route7": "",
    "route8": "",
    "route9": "",
    "route10": "",
    "route11": "",
    "latitude": 40.686584,
    "longitude": -73.990362
  },
  {
    "stationName": "Carroll St",
    "route1": "F",
    "route2": "G",
    "route3": "",
    "route4": "",
    "route5": "",
    "route6": "",
    "route7": "",
    "route8": "",
    "route9": "",
    "route10": "",
    "route11": "",
    "latitude": 40.679299,
    "longitude": -73.995698
  },
  {
    "stationName": "Smith-9th St",
    "route1": "F",
    "route2": "G",
    "route3": "R",
    "route4": "",
    "route5": "",
    "route6": "",
    "route7": "",
    "route8": "",
    "route9": "",
    "route10": "",
    "route11": "",
    "latitude": 40.674725,
    "longitude": -73.997505
  },
  {
    "stationName": "4th Av",
    "route1": "F",
    "route2": "",
    "route3": "",
    "route4": "",
    "route5": "",
    "route6": "",
    "route7": "",
    "route8": "",
    "route9": "",
    "route10": "",
    "route11": "",
    "latitude": 40.669953,
    "longitude": -73.989442
  },
  {
    "stationName": "7th Av",
    "route1": "F",
    "route2": "",
    "route3": "",
    "route4": "",
    "route5": "",
    "route6": "",
    "route7": "",
    "route8": "",
    "route9": "",
    "route10": "",
    "route11": "",
    "latitude": 40.665835,
    "longitude": -73.979007
  },
  {
    "stationName": "Prospect Park-15 St",
    "route1": "F",
    "route2": "",
    "route3": "",
    "route4": "",
    "route5": "",
    "route6": "",
    "route7": "",
    "route8": "",
    "route9": "",
    "route10": "",
    "route11": "",
    "latitude": 40.659436,
    "longitude": -73.979951
  },
  {
    "stationName": "Fort Hamilton Parkway",
    "route1": "F",
    "route2": "",
    "route3": "",
    "route4": "",
    "route5": "",
    "route6": "",
    "route7": "",
    "route8": "",
    "route9": "",
    "route10": "",
    "route11": "",
    "latitude": 40.651834,
    "longitude": -73.976076
  },
  {
    "stationName": "Church Av",
    "route1": "F",
    "route2": "",
    "route3": "",
    "route4": "",
    "route5": "",
    "route6": "",
    "route7": "",
    "route8": "",
    "route9": "",
    "route10": "",
    "route11": "",
    "latitude": 40.642571,
    "longitude": -73.979579
  },
  {
    "stationName": "Ditmas Av",
    "route1": "F",
    "route2": "",
    "route3": "",
    "route4": "",
    "route5": "",
    "route6": "",
    "route7": "",
    "route8": "",
    "route9": "",
    "route10": "",
    "route11": "",
    "latitude": 40.635434,
    "longitude": -73.978289
  },
  {
    "stationName": "18th Av",
    "route1": "F",
    "route2": "",
    "route3": "",
    "route4": "",
    "route5": "",
    "route6": "",
    "route7": "",
    "route8": "",
    "route9": "",
    "route10": "",
    "route11": "",
    "latitude": 40.630531,
    "longitude": -73.977251
  },
  {
    "stationName": "Av I",
    "route1": "F",
    "route2": "",
    "route3": "",
    "route4": "",
    "route5": "",
    "route6": "",
    "route7": "",
    "route8": "",
    "route9": "",
    "route10": "",
    "route11": "",
    "latitude": 40.626133,
    "longitude": -73.976407
  },
  {
    "stationName": "Bay Parkway-22nd Av",
    "route1": "F",
    "route2": "",
    "route3": "",
    "route4": "",
    "route5": "",
    "route6": "",
    "route7": "",
    "route8": "",
    "route9": "",
    "route10": "",
    "route11": "",
    "latitude": 40.620797,
    "longitude": -73.975479
  },
  {
    "stationName": "Av N",
    "route1": "F",
    "route2": "",
    "route3": "",
    "route4": "",
    "route5": "",
    "route6": "",
    "route7": "",
    "route8": "",
    "route9": "",
    "route10": "",
    "route11": "",
    "latitude": 40.614279,
    "longitude": -73.97418
  },
  {
    "stationName": "Av P",
    "route1": "F",
    "route2": "",
    "route3": "",
    "route4": "",
    "route5": "",
    "route6": "",
    "route7": "",
    "route8": "",
    "route9": "",
    "route10": "",
    "route11": "",
    "latitude": 40.608615,
    "longitude": -73.973097
  },
  {
    "stationName": "Kings Highway",
    "route1": "F",
    "route2": "",
    "route3": "",
    "route4": "",
    "route5": "",
    "route6": "",
    "route7": "",
    "route8": "",
    "route9": "",
    "route10": "",
    "route11": "",
    "latitude": 40.604007,
    "longitude": -73.972393
  },
  {
    "stationName": "Av U",
    "route1": "F",
    "route2": "",
    "route3": "",
    "route4": "",
    "route5": "",
    "route6": "",
    "route7": "",
    "route8": "",
    "route9": "",
    "route10": "",
    "route11": "",
    "latitude": 40.596701,
    "longitude": -73.973402
  },
  {
    "stationName": "Av X",
    "route1": "F",
    "route2": "",
    "route3": "",
    "route4": "",
    "route5": "",
    "route6": "",
    "route7": "",
    "route8": "",
    "route9": "",
    "route10": "",
    "route11": "",
    "latitude": 40.590521,
    "longitude": -73.974242
  },
  {
    "stationName": "Neptune Av-Van Siclen",
    "route1": "F",
    "route2": "",
    "route3": "",
    "route4": "",
    "route5": "",
    "route6": "",
    "route7": "",
    "route8": "",
    "route9": "",
    "route10": "",
    "route11": "",
    "latitude": 40.580576,
    "longitude": -73.974443
  },
  {
    "stationName": "Jamaica-179th St",
    "route1": "F",
    "route2": "",
    "route3": "",
    "route4": "",
    "route5": "",
    "route6": "",
    "route7": "",
    "route8": "",
    "route9": "",
    "route10": "",
    "route11": "",
    "latitude": 40.712581,
    "longitude": -73.783377
  },
  {
    "stationName": "169th St",
    "route1": "F",
    "route2": "",
    "route3": "",
    "route4": "",
    "route5": "",
    "route6": "",
    "route7": "",
    "route8": "",
    "route9": "",
    "route10": "",
    "route11": "",
    "latitude": 40.710563,
    "longitude": -73.792853
  },
  {
    "stationName": "Parsons Blvd",
    "route1": "F",
    "route2": "",
    "route3": "",
    "route4": "",
    "route5": "",
    "route6": "",
    "route7": "",
    "route8": "",
    "route9": "",
    "route10": "",
    "route11": "",
    "latitude": 40.707473,
    "longitude": -73.802797
  },
  {
    "stationName": "Sutphin Blvd",
    "route1": "F",
    "route2": "",
    "route3": "",
    "route4": "",
    "route5": "",
    "route6": "",
    "route7": "",
    "route8": "",
    "route9": "",
    "route10": "",
    "route11": "",
    "latitude": 40.705591,
    "longitude": -73.809481
  },
  {
    "stationName": "Briarwood-Van Wyck Blvd",
    "route1": "F",
    "route2": "",
    "route3": "",
    "route4": "",
    "route5": "",
    "route6": "",
    "route7": "",
    "route8": "",
    "route9": "",
    "route10": "",
    "route11": "",
    "latitude": 40.708068,
    "longitude": -73.820111
  },
  {
    "stationName": "Kew Gardens-Union Turnpike",
    "route1": "E",
    "route2": "F",
    "route3": "",
    "route4": "",
    "route5": "",
    "route6": "",
    "route7": "",
    "route8": "",
    "route9": "",
    "route10": "",
    "route11": "",
    "latitude": 40.714001,
    "longitude": -73.831166
  },
  {
    "stationName": "75th Av",
    "route1": "E",
    "route2": "F",
    "route3": "",
    "route4": "",
    "route5": "",
    "route6": "",
    "route7": "",
    "route8": "",
    "route9": "",
    "route10": "",
    "route11": "",
    "latitude": 40.717895,
    "longitude": -73.836743
  },
  {
    "stationName": "Forest Hills-71st Av",
    "route1": "E",
    "route2": "F",
    "route3": "M",
    "route4": "R",
    "route5": "",
    "route6": "",
    "route7": "",
    "route8": "",
    "route9": "",
    "route10": "",
    "route11": "",
    "latitude": 40.7211,
    "longitude": -73.844039
  },
  {
    "stationName": "67th Av",
    "route1": "M",
    "route2": "R",
    "route3": "",
    "route4": "",
    "route5": "",
    "route6": "",
    "route7": "",
    "route8": "",
    "route9": "",
    "route10": "",
    "route11": "",
    "latitude": 40.726598,
    "longitude": -73.853534
  },
  {
    "stationName": "63rd Drive-Rego Park",
    "route1": "M",
    "route2": "R",
    "route3": "",
    "route4": "",
    "route5": "",
    "route6": "",
    "route7": "",
    "route8": "",
    "route9": "",
    "route10": "",
    "route11": "",
    "latitude": 40.729953,
    "longitude": -73.862699
  },
  {
    "stationName": "Woodhaven Blvd",
    "route1": "M",
    "route2": "R",
    "route3": "",
    "route4": "",
    "route5": "",
    "route6": "",
    "route7": "",
    "route8": "",
    "route9": "",
    "route10": "",
    "route11": "",
    "latitude": 40.733041,
    "longitude": -73.870334
  },
  {
    "stationName": "Grand Av-Newtown",
    "route1": "M",
    "route2": "R",
    "route3": "",
    "route4": "",
    "route5": "",
    "route6": "",
    "route7": "",
    "route8": "",
    "route9": "",
    "route10": "",
    "route11": "",
    "latitude": 40.735888,
    "longitude": -73.876886
  },
  {
    "stationName": "Elmhurst Av",
    "route1": "M",
    "route2": "R",
    "route3": "",
    "route4": "",
    "route5": "",
    "route6": "",
    "route7": "",
    "route8": "",
    "route9": "",
    "route10": "",
    "route11": "",
    "latitude": 40.741729,
    "longitude": -73.881135
  },
  {
    "stationName": "Jackson Heights-Roosevelt Ave",
    "route1": "E",
    "route2": "F",
    "route3": "M",
    "route4": "R",
    "route5": 7,
    "route6": "",
    "route7": "",
    "route8": "",
    "route9": "",
    "route10": "",
    "route11": "",
    "latitude": 40.746784,
    "longitude": -73.890958
  },
  {
    "stationName": "65th St",
    "route1": "M",
    "route2": "R",
    "route3": "",
    "route4": "",
    "route5": "",
    "route6": "",
    "route7": "",
    "route8": "",
    "route9": "",
    "route10": "",
    "route11": "",
    "latitude": 40.749145,
    "longitude": -73.897495
  },
  {
    "stationName": "Northern Blvd",
    "route1": "M",
    "route2": "R",
    "route3": "",
    "route4": "",
    "route5": "",
    "route6": "",
    "route7": "",
    "route8": "",
    "route9": "",
    "route10": "",
    "route11": "",
    "latitude": 40.753086,
    "longitude": -73.907119
  },
  {
    "stationName": "46th St",
    "route1": "M",
    "route2": "R",
    "route3": "",
    "route4": "",
    "route5": "",
    "route6": "",
    "route7": "",
    "route8": "",
    "route9": "",
    "route10": "",
    "route11": "",
    "latitude": 40.756868,
    "longitude": -73.914303
  },
  {
    "stationName": "Steinway St",
    "route1": "M",
    "route2": "R",
    "route3": "",
    "route4": "",
    "route5": "",
    "route6": "",
    "route7": "",
    "route8": "",
    "route9": "",
    "route10": "",
    "route11": "",
    "latitude": 40.758143,
    "longitude": -73.919842
  },
  {
    "stationName": "36th St",
    "route1": "M",
    "route2": "R",
    "route3": "",
    "route4": "",
    "route5": "",
    "route6": "",
    "route7": "",
    "route8": "",
    "route9": "",
    "route10": "",
    "route11": "",
    "latitude": 40.752232,
    "longitude": -73.928775
  },
  {
    "stationName": "Queens Plaza",
    "route1": "E",
    "route2": "M",
    "route3": "R",
    "route4": "",
    "route5": "",
    "route6": "",
    "route7": "",
    "route8": "",
    "route9": "",
    "route10": "",
    "route11": "",
    "latitude": 40.748705,
    "longitude": -73.938471
  },
  {
    "stationName": "23rd St-Ely Av",
    "route1": "E",
    "route2": "G",
    "route3": "M",
    "route4": 7,
    "route5": "",
    "route6": "",
    "route7": "",
    "route8": "",
    "route9": "",
    "route10": "",
    "route11": "",
    "latitude": 40.747371,
    "longitude": -73.944287
  },
  {
    "stationName": "Lexington Av-53rd St",
    "route1": "E",
    "route2": "M",
    "route3": 6,
    "route4": "",
    "route5": "",
    "route6": "",
    "route7": "",
    "route8": "",
    "route9": "",
    "route10": "",
    "route11": "",
    "latitude": 40.758329,
    "longitude": -73.970567
  },
  {
    "stationName": "5th Av-53rd St",
    "route1": "E",
    "route2": "M",
    "route3": "",
    "route4": "",
    "route5": "",
    "route6": "",
    "route7": "",
    "route8": "",
    "route9": "",
    "route10": "",
    "route11": "",
    "latitude": 40.760422,
    "longitude": -73.976146
  },
  {
    "stationName": "7th Av",
    "route1": "B",
    "route2": "D",
    "route3": "E",
    "route4": "",
    "route5": "",
    "route6": "",
    "route7": "",
    "route8": "",
    "route9": "",
    "route10": "",
    "route11": "",
    "latitude": 40.762937,
    "longitude": -73.981578
  },
  {
    "stationName": "Parsons Blvd-Archer Av - Jamaica Center",
    "route1": "E",
    "route2": "J",
    "route3": "Z",
    "route4": "",
    "route5": "",
    "route6": "",
    "route7": "",
    "route8": "",
    "route9": "",
    "route10": "",
    "route11": "",
    "latitude": 40.702353,
    "longitude": -73.799784
  },
  {
    "stationName": "Sutphin Blvd-Archer Av - JFK",
    "route1": "E",
    "route2": "J",
    "route3": "Z",
    "route4": "",
    "route5": "",
    "route6": "",
    "route7": "",
    "route8": "",
    "route9": "",
    "route10": "",
    "route11": "",
    "latitude": 40.700401,
    "longitude": -73.807976
  },
  {
    "stationName": "Jamaica-Van Wyck",
    "route1": "E",
    "route2": "",
    "route3": "",
    "route4": "",
    "route5": "",
    "route6": "",
    "route7": "",
    "route8": "",
    "route9": "",
    "route10": "",
    "route11": "",
    "latitude": 40.701263,
    "longitude": -73.816372
  },
  {
    "stationName": "Long Island City-Court Square",
    "route1": "G",
    "route2": "",
    "route3": "",
    "route4": "",
    "route5": "",
    "route6": "",
    "route7": "",
    "route8": "",
    "route9": "",
    "route10": "",
    "route11": "",
    "latitude": 40.746214,
    "longitude": -73.945115
  },
  {
    "stationName": "21st St",
    "route1": "G",
    "route2": "",
    "route3": "",
    "route4": "",
    "route5": "",
    "route6": "",
    "route7": "",
    "route8": "",
    "route9": "",
    "route10": "",
    "route11": "",
    "latitude": 40.744625,
    "longitude": -73.949117
  },
  {
    "stationName": "Greenpoint Av",
    "route1": "G",
    "route2": "",
    "route3": "",
    "route4": "",
    "route5": "",
    "route6": "",
    "route7": "",
    "route8": "",
    "route9": "",
    "route10": "",
    "route11": "",
    "latitude": 40.73007,
    "longitude": -73.954377
  },
  {
    "stationName": "Nassau Av",
    "route1": "G",
    "route2": "",
    "route3": "",
    "route4": "",
    "route5": "",
    "route6": "",
    "route7": "",
    "route8": "",
    "route9": "",
    "route10": "",
    "route11": "",
    "latitude": 40.72365,
    "longitude": -73.950929
  },
  {
    "stationName": "Metropolitan Av",
    "route1": "G",
    "route2": "L",
    "route3": "",
    "route4": "",
    "route5": "",
    "route6": "",
    "route7": "",
    "route8": "",
    "route9": "",
    "route10": "",
    "route11": "",
    "latitude": 40.71414,
    "longitude": -73.95135
  },
  {
    "stationName": "Broadway",
    "route1": "G",
    "route2": "",
    "route3": "",
    "route4": "",
    "route5": "",
    "route6": "",
    "route7": "",
    "route8": "",
    "route9": "",
    "route10": "",
    "route11": "",
    "latitude": 40.705114,
    "longitude": -73.950062
  },
  {
    "stationName": "Flushing Av",
    "route1": "G",
    "route2": "",
    "route3": "",
    "route4": "",
    "route5": "",
    "route6": "",
    "route7": "",
    "route8": "",
    "route9": "",
    "route10": "",
    "route11": "",
    "latitude": 40.699582,
    "longitude": -73.950164
  },
  {
    "stationName": "Myrtle-Willoughby Avs",
    "route1": "G",
    "route2": "",
    "route3": "",
    "route4": "",
    "route5": "",
    "route6": "",
    "route7": "",
    "route8": "",
    "route9": "",
    "route10": "",
    "route11": "",
    "latitude": 40.695436,
    "longitude": -73.94948
  },
  {
    "stationName": "Bedford-Nostrand Avs",
    "route1": "G",
    "route2": "",
    "route3": "",
    "route4": "",
    "route5": "",
    "route6": "",
    "route7": "",
    "route8": "",
    "route9": "",
    "route10": "",
    "route11": "",
    "latitude": 40.689995,
    "longitude": -73.951616
  },
  {
    "stationName": "Classon Av",
    "route1": "G",
    "route2": "",
    "route3": "",
    "route4": "",
    "route5": "",
    "route6": "",
    "route7": "",
    "route8": "",
    "route9": "",
    "route10": "",
    "route11": "",
    "latitude": 40.688942,
    "longitude": -73.960215
  },
  {
    "stationName": "Clinton-Washington Avs",
    "route1": "G",
    "route2": "",
    "route3": "",
    "route4": "",
    "route5": "",
    "route6": "",
    "route7": "",
    "route8": "",
    "route9": "",
    "route10": "",
    "route11": "",
    "latitude": 40.688114,
    "longitude": -73.967575
  },
  {
    "stationName": "Fulton St",
    "route1": "G",
    "route2": "",
    "route3": "",
    "route4": "",
    "route5": "",
    "route6": "",
    "route7": "",
    "route8": "",
    "route9": "",
    "route10": "",
    "route11": "",
    "latitude": 40.687159,
    "longitude": -73.97629
  },
  {
    "stationName": "Van Cortlandt Park-242nd St",
    "route1": 1,
    "route2": "",
    "route3": "",
    "route4": "",
    "route5": "",
    "route6": "",
    "route7": "",
    "route8": "",
    "route9": "",
    "route10": "",
    "route11": "",
    "latitude": 40.889783,
    "longitude": -73.898432
  },
  {
    "stationName": "238th St",
    "route1": 1,
    "route2": "",
    "route3": "",
    "route4": "",
    "route5": "",
    "route6": "",
    "route7": "",
    "route8": "",
    "route9": "",
    "route10": "",
    "route11": "",
    "latitude": 40.884813,
    "longitude": -73.900923
  },
  {
    "stationName": "231st St",
    "route1": 1,
    "route2": "",
    "route3": "",
    "route4": "",
    "route5": "",
    "route6": "",
    "route7": "",
    "route8": "",
    "route9": "",
    "route10": "",
    "route11": "",
    "latitude": 40.878775,
    "longitude": -73.905024
  },
  {
    "stationName": "Marble Hill-225th St",
    "route1": 1,
    "route2": "",
    "route3": "",
    "route4": "",
    "route5": "",
    "route6": "",
    "route7": "",
    "route8": "",
    "route9": "",
    "route10": "",
    "route11": "",
    "latitude": 40.874437,
    "longitude": -73.910529
  },
  {
    "stationName": "215th St",
    "route1": 1,
    "route2": "",
    "route3": "",
    "route4": "",
    "route5": "",
    "route6": "",
    "route7": "",
    "route8": "",
    "route9": "",
    "route10": "",
    "route11": "",
    "latitude": 40.869412,
    "longitude": -73.915455
  },
  {
    "stationName": "207th St",
    "route1": 1,
    "route2": "",
    "route3": "",
    "route4": "",
    "route5": "",
    "route6": "",
    "route7": "",
    "route8": "",
    "route9": "",
    "route10": "",
    "route11": "",
    "latitude": 40.864745,
    "longitude": -73.918864
  },
  {
    "stationName": "Dyckman St",
    "route1": 1,
    "route2": "",
    "route3": "",
    "route4": "",
    "route5": "",
    "route6": "",
    "route7": "",
    "route8": "",
    "route9": "",
    "route10": "",
    "route11": "",
    "latitude": 40.861183,
    "longitude": -73.92511
  },
  {
    "stationName": "191st St",
    "route1": 1,
    "route2": "",
    "route3": "",
    "route4": "",
    "route5": "",
    "route6": "",
    "route7": "",
    "route8": "",
    "route9": "",
    "route10": "",
    "route11": "",
    "latitude": 40.855374,
    "longitude": -73.929536
  },
  {
    "stationName": "181st St",
    "route1": 1,
    "route2": "",
    "route3": "",
    "route4": "",
    "route5": "",
    "route6": "",
    "route7": "",
    "route8": "",
    "route9": "",
    "route10": "",
    "route11": "",
    "latitude": 40.849435,
    "longitude": -73.933428
  },
  {
    "stationName": "157th St",
    "route1": 1,
    "route2": "",
    "route3": "",
    "route4": "",
    "route5": "",
    "route6": "",
    "route7": "",
    "route8": "",
    "route9": "",
    "route10": "",
    "route11": "",
    "latitude": 40.834268,
    "longitude": -73.945183
  },
  {
    "stationName": "145th St",
    "route1": 1,
    "route2": "",
    "route3": "",
    "route4": "",
    "route5": "",
    "route6": "",
    "route7": "",
    "route8": "",
    "route9": "",
    "route10": "",
    "route11": "",
    "latitude": 40.826657,
    "longitude": -73.95052
  },
  {
    "stationName": "137th St-City College",
    "route1": 1,
    "route2": "",
    "route3": "",
    "route4": "",
    "route5": "",
    "route6": "",
    "route7": "",
    "route8": "",
    "route9": "",
    "route10": "",
    "route11": "",
    "latitude": 40.821584,
    "longitude": -73.954223
  },
  {
    "stationName": "125th St",
    "route1": 1,
    "route2": "",
    "route3": "",
    "route4": "",
    "route5": "",
    "route6": "",
    "route7": "",
    "route8": "",
    "route9": "",
    "route10": "",
    "route11": "",
    "latitude": 40.815143,
    "longitude": -73.958439
  },
  {
    "stationName": "116th St-Columbia University",
    "route1": 1,
    "route2": "",
    "route3": "",
    "route4": "",
    "route5": "",
    "route6": "",
    "route7": "",
    "route8": "",
    "route9": "",
    "route10": "",
    "route11": "",
    "latitude": 40.808251,
    "longitude": -73.963955
  },
  {
    "stationName": "Cathedral Parkway-110th St",
    "route1": 1,
    "route2": "",
    "route3": "",
    "route4": "",
    "route5": "",
    "route6": "",
    "route7": "",
    "route8": "",
    "route9": "",
    "route10": "",
    "route11": "",
    "latitude": 40.80439,
    "longitude": -73.966786
  },
  {
    "stationName": "103rd St",
    "route1": 1,
    "route2": "",
    "route3": "",
    "route4": "",
    "route5": "",
    "route6": "",
    "route7": "",
    "route8": "",
    "route9": "",
    "route10": "",
    "route11": "",
    "latitude": 40.799282,
    "longitude": -73.968679
  },
  {
    "stationName": "86th St",
    "route1": 1,
    "route2": "",
    "route3": "",
    "route4": "",
    "route5": "",
    "route6": "",
    "route7": "",
    "route8": "",
    "route9": "",
    "route10": "",
    "route11": "",
    "latitude": 40.788349,
    "longitude": -73.976935
  },
  {
    "stationName": "79th St",
    "route1": 1,
    "route2": "",
    "route3": "",
    "route4": "",
    "route5": "",
    "route6": "",
    "route7": "",
    "route8": "",
    "route9": "",
    "route10": "",
    "route11": "",
    "latitude": 40.784066,
    "longitude": -73.980051
  },
  {
    "stationName": "72nd St",
    "route1": 1,
    "route2": 2,
    "route3": 3,
    "route4": "",
    "route5": "",
    "route6": "",
    "route7": "",
    "route8": "",
    "route9": "",
    "route10": "",
    "route11": "",
    "latitude": 40.779146,
    "longitude": -73.981822
  },
  {
    "stationName": "66th St-Lincoln Center",
    "route1": 1,
    "route2": "",
    "route3": "",
    "route4": "",
    "route5": "",
    "route6": "",
    "route7": "",
    "route8": "",
    "route9": "",
    "route10": "",
    "route11": "",
    "latitude": 40.773738,
    "longitude": -73.982448
  },
  {
    "stationName": "50th St",
    "route1": 1,
    "route2": "",
    "route3": "",
    "route4": "",
    "route5": "",
    "route6": "",
    "route7": "",
    "route8": "",
    "route9": "",
    "route10": "",
    "route11": "",
    "latitude": 40.761111,
    "longitude": -73.983436
  },
  {
    "stationName": "Times Square",
    "route1": "A",
    "route2": "C",
    "route3": "E",
    "route4": "N",
    "route5": "Q",
    "route6": "R",
    "route7": "S",
    "route8": 1,
    "route9": 2,
    "route10": 3,
    "route11": 7,
    "latitude": 40.756241,
    "longitude": -73.987133
  },
  {
    "stationName": "34th St",
    "route1": 1,
    "route2": 2,
    "route3": 3,
    "route4": "",
    "route5": "",
    "route6": "",
    "route7": "",
    "route8": "",
    "route9": "",
    "route10": "",
    "route11": "",
    "latitude": 40.751046,
    "longitude": -73.991271
  },
  {
    "stationName": "23rd St",
    "route1": 1,
    "route2": "",
    "route3": "",
    "route4": "",
    "route5": "",
    "route6": "",
    "route7": "",
    "route8": "",
    "route9": "",
    "route10": "",
    "route11": "",
    "latitude": 40.74391,
    "longitude": -73.995608
  },
  {
    "stationName": "18th St",
    "route1": 1,
    "route2": "",
    "route3": "",
    "route4": "",
    "route5": "",
    "route6": "",
    "route7": "",
    "route8": "",
    "route9": "",
    "route10": "",
    "route11": "",
    "latitude": 40.74092,
    "longitude": -73.997698
  },
  {
    "stationName": "Christopher St",
    "route1": 1,
    "route2": "",
    "route3": "",
    "route4": "",
    "route5": "",
    "route6": "",
    "route7": "",
    "route8": "",
    "route9": "",
    "route10": "",
    "route11": "",
    "latitude": 40.733402,
    "longitude": -74.002748
  },
  {
    "stationName": "Houston St",
    "route1": 1,
    "route2": "",
    "route3": "",
    "route4": "",
    "route5": "",
    "route6": "",
    "route7": "",
    "route8": "",
    "route9": "",
    "route10": "",
    "route11": "",
    "latitude": 40.728472,
    "longitude": -74.005188
  },
  {
    "stationName": "Canal St",
    "route1": 1,
    "route2": "",
    "route3": "",
    "route4": "",
    "route5": "",
    "route6": "",
    "route7": "",
    "route8": "",
    "route9": "",
    "route10": "",
    "route11": "",
    "latitude": 40.722569,
    "longitude": -74.00608
  },
  {
    "stationName": "Franklin St",
    "route1": 1,
    "route2": "",
    "route3": "",
    "route4": "",
    "route5": "",
    "route6": "",
    "route7": "",
    "route8": "",
    "route9": "",
    "route10": "",
    "route11": "",
    "latitude": 40.719001,
    "longitude": -74.006675
  },
  {
    "stationName": "Chambers St",
    "route1": 1,
    "route2": 2,
    "route3": 3,
    "route4": "",
    "route5": "",
    "route6": "",
    "route7": "",
    "route8": "",
    "route9": "",
    "route10": "",
    "route11": "",
    "latitude": 40.715444,
    "longitude": -74.009453
  },
  {
    "stationName": "Rector St",
    "route1": 1,
    "route2": "",
    "route3": "",
    "route4": "",
    "route5": "",
    "route6": "",
    "route7": "",
    "route8": "",
    "route9": "",
    "route10": "",
    "route11": "",
    "latitude": 40.708107,
    "longitude": -74.013445
  },
  {
    "stationName": "Park Place",
    "route1": "A",
    "route2": "C",
    "route3": "E",
    "route4": 1,
    "route5": 2,
    "route6": 3,
    "route7": "",
    "route8": "",
    "route9": "",
    "route10": "",
    "route11": "",
    "latitude": 40.712712,
    "longitude": -74.007766
  },
  {
    "stationName": "Fulton St",
    "route1": "A",
    "route2": "C",
    "route3": "J",
    "route4": "Z",
    "route5": 2,
    "route6": 3,
    "route7": 4,
    "route8": 5,
    "route9": "",
    "route10": "",
    "route11": "",
    "latitude": 40.709475,
    "longitude": -74.006409
  },
  {
    "stationName": "Wall St",
    "route1": 2,
    "route2": 3,
    "route3": "",
    "route4": "",
    "route5": "",
    "route6": "",
    "route7": "",
    "route8": "",
    "route9": "",
    "route10": "",
    "route11": "",
    "latitude": 40.706506,
    "longitude": -74.009544
  },
  {
    "stationName": "Clark St",
    "route1": 2,
    "route2": 3,
    "route3": "",
    "route4": "",
    "route5": "",
    "route6": "",
    "route7": "",
    "route8": "",
    "route9": "",
    "route10": "",
    "route11": "",
    "latitude": 40.69759,
    "longitude": -73.993275
  },
  {
    "stationName": "Borough Hall",
    "route1": "R",
    "route2": 2,
    "route3": 3,
    "route4": 4,
    "route5": 5,
    "route6": "",
    "route7": "",
    "route8": "",
    "route9": "",
    "route10": "",
    "route11": "",
    "latitude": 40.693594,
    "longitude": -73.990304
  },
  {
    "stationName": "Hoyt St",
    "route1": 2,
    "route2": 3,
    "route3": "",
    "route4": "",
    "route5": "",
    "route6": "",
    "route7": "",
    "route8": "",
    "route9": "",
    "route10": "",
    "route11": "",
    "latitude": 40.690388,
    "longitude": -73.985299
  },
  {
    "stationName": "Nevins St",
    "route1": 2,
    "route2": 3,
    "route3": 4,
    "route4": 5,
    "route5": "",
    "route6": "",
    "route7": "",
    "route8": "",
    "route9": "",
    "route10": "",
    "route11": "",
    "latitude": 40.688235,
    "longitude": -73.980639
  },
  {
    "stationName": "Atlantic Av-Barclays Ctr",
    "route1": "B",
    "route2": "D",
    "route3": "N",
    "route4": "Q",
    "route5": "R",
    "route6": 2,
    "route7": 3,
    "route8": 4,
    "route9": 5,
    "route10": "",
    "route11": "",
    "latitude": 40.684976,
    "longitude": -73.97788
  },
  {
    "stationName": "Bergen St",
    "route1": 2,
    "route2": 3,
    "route3": "",
    "route4": "",
    "route5": "",
    "route6": "",
    "route7": "",
    "route8": "",
    "route9": "",
    "route10": "",
    "route11": "",
    "latitude": 40.680695,
    "longitude": -73.974748
  },
  {
    "stationName": "Grand Army Plaza",
    "route1": 2,
    "route2": 3,
    "route3": "",
    "route4": "",
    "route5": "",
    "route6": "",
    "route7": "",
    "route8": "",
    "route9": "",
    "route10": "",
    "route11": "",
    "latitude": 40.67495,
    "longitude": -73.97099
  },
  {
    "stationName": "Eastern Parkway-Brooklyn Museum",
    "route1": 2,
    "route2": 3,
    "route3": "",
    "route4": "",
    "route5": "",
    "route6": "",
    "route7": "",
    "route8": "",
    "route9": "",
    "route10": "",
    "route11": "",
    "latitude": 40.672122,
    "longitude": -73.964154
  },
  {
    "stationName": "Franklin Av",
    "route1": "FS",
    "route2": 2,
    "route3": 3,
    "route4": 4,
    "route5": 5,
    "route6": "",
    "route7": "",
    "route8": "",
    "route9": "",
    "route10": "",
    "route11": "",
    "latitude": 40.670485,
    "longitude": -73.957806
  },
  {
    "stationName": "Nostrand Av",
    "route1": 3,
    "route2": "",
    "route3": "",
    "route4": "",
    "route5": "",
    "route6": "",
    "route7": "",
    "route8": "",
    "route9": "",
    "route10": "",
    "route11": "",
    "latitude": 40.669711,
    "longitude": -73.950247
  },
  {
    "stationName": "Kingston Av",
    "route1": 3,
    "route2": "",
    "route3": "",
    "route4": "",
    "route5": "",
    "route6": "",
    "route7": "",
    "route8": "",
    "route9": "",
    "route10": "",
    "route11": "",
    "latitude": 40.669261,
    "longitude": -73.941948
  },
  {
    "stationName": "Utica Av",
    "route1": 3,
    "route2": 4,
    "route3": "",
    "route4": "",
    "route5": "",
    "route6": "",
    "route7": "",
    "route8": "",
    "route9": "",
    "route10": "",
    "route11": "",
    "latitude": 40.668935,
    "longitude": -73.931831
  },
  {
    "stationName": "Sutter Av",
    "route1": 3,
    "route2": "",
    "route3": "",
    "route4": "",
    "route5": "",
    "route6": "",
    "route7": "",
    "route8": "",
    "route9": "",
    "route10": "",
    "route11": "",
    "latitude": 40.664891,
    "longitude": -73.922675
  },
  {
    "stationName": "Saratoga Av",
    "route1": 3,
    "route2": "",
    "route3": "",
    "route4": "",
    "route5": "",
    "route6": "",
    "route7": "",
    "route8": "",
    "route9": "",
    "route10": "",
    "route11": "",
    "latitude": 40.661558,
    "longitude": -73.915225
  },
  {
    "stationName": "Rockaway Av",
    "route1": 3,
    "route2": "",
    "route3": "",
    "route4": "",
    "route5": "",
    "route6": "",
    "route7": "",
    "route8": "",
    "route9": "",
    "route10": "",
    "route11": "",
    "latitude": 40.662401,
    "longitude": -73.908809
  },
  {
    "stationName": "Junius St",
    "route1": 3,
    "route2": "",
    "route3": "",
    "route4": "",
    "route5": "",
    "route6": "",
    "route7": "",
    "route8": "",
    "route9": "",
    "route10": "",
    "route11": "",
    "latitude": 40.663426,
    "longitude": -73.902636
  },
  {
    "stationName": "Pennsylvania Av",
    "route1": 3,
    "route2": "",
    "route3": "",
    "route4": "",
    "route5": "",
    "route6": "",
    "route7": "",
    "route8": "",
    "route9": "",
    "route10": "",
    "route11": "",
    "latitude": 40.664869,
    "longitude": -73.893779
  },
  {
    "stationName": "Van Siclen Av",
    "route1": 3,
    "route2": "",
    "route3": "",
    "route4": "",
    "route5": "",
    "route6": "",
    "route7": "",
    "route8": "",
    "route9": "",
    "route10": "",
    "route11": "",
    "latitude": 40.665431,
    "longitude": -73.888386
  },
  {
    "stationName": "New Lots Av",
    "route1": 3,
    "route2": "",
    "route3": "",
    "route4": "",
    "route5": "",
    "route6": "",
    "route7": "",
    "route8": "",
    "route9": "",
    "route10": "",
    "route11": "",
    "latitude": 40.666285,
    "longitude": -73.883276
  },
  {
    "stationName": "President St",
    "route1": 2,
    "route2": 5,
    "route3": "",
    "route4": "",
    "route5": "",
    "route6": "",
    "route7": "",
    "route8": "",
    "route9": "",
    "route10": "",
    "route11": "",
    "latitude": 40.668166,
    "longitude": -73.950862
  },
  {
    "stationName": "Sterling St",
    "route1": 2,
    "route2": 5,
    "route3": "",
    "route4": "",
    "route5": "",
    "route6": "",
    "route7": "",
    "route8": "",
    "route9": "",
    "route10": "",
    "route11": "",
    "latitude": 40.66329,
    "longitude": -73.951044
  },
  {
    "stationName": "Winthrop St",
    "route1": 2,
    "route2": 5,
    "route3": "",
    "route4": "",
    "route5": "",
    "route6": "",
    "route7": "",
    "route8": "",
    "route9": "",
    "route10": "",
    "route11": "",
    "latitude": 40.657184,
    "longitude": -73.949976
  },
  {
    "stationName": "Church Av",
    "route1": 2,
    "route2": 5,
    "route3": "",
    "route4": "",
    "route5": "",
    "route6": "",
    "route7": "",
    "route8": "",
    "route9": "",
    "route10": "",
    "route11": "",
    "latitude": 40.650748,
    "longitude": -73.949384
  },
  {
    "stationName": "Beverly Rd",
    "route1": 2,
    "route2": 5,
    "route3": "",
    "route4": "",
    "route5": "",
    "route6": "",
    "route7": "",
    "route8": "",
    "route9": "",
    "route10": "",
    "route11": "",
    "latitude": 40.645046,
    "longitude": -73.948684
  },
  {
    "stationName": "Newkirk Av",
    "route1": 2,
    "route2": 5,
    "route3": "",
    "route4": "",
    "route5": "",
    "route6": "",
    "route7": "",
    "route8": "",
    "route9": "",
    "route10": "",
    "route11": "",
    "latitude": 40.639924,
    "longitude": -73.948161
  },
  {
    "stationName": "Flatbush Av-Brooklyn College",
    "route1": 2,
    "route2": 5,
    "route3": "",
    "route4": "",
    "route5": "",
    "route6": "",
    "route7": "",
    "route8": "",
    "route9": "",
    "route10": "",
    "route11": "",
    "latitude": 40.632463,
    "longitude": -73.947518
  },
  {
    "stationName": "Pelham Bay Park",
    "route1": 6,
    "route2": "",
    "route3": "",
    "route4": "",
    "route5": "",
    "route6": "",
    "route7": "",
    "route8": "",
    "route9": "",
    "route10": "",
    "route11": "",
    "latitude": 40.852377,
    "longitude": -73.825986
  },